{"type":"FeatureCollection","metadata":{"id":1,"name":"駐日外国公館","description":"駐日外国公館のデータ","updated":"2025-07-22","defaultIcon":"🏛️"},"name":"foreign-embassy","features":[{"type":"Feature","properties":{"id":1,"type":"大使館","icon":"🇮🇳","country":"インド","name":"インド大使館","address":"東京都千代田区九段南2-2-11"},"geometry":{"type":"Point","coordinates":[139.74726,35.69403]}},{"type":"Feature","properties":{"id":2,"type":"領事館","icon":"🇮🇳","country":"インド","name":"在大阪・神戸インド総領事館","address":"大阪市中央区久太郎町1丁目9-26 ルーシッドスクエア船場10階"},"geometry":{"type":"Point","coordinates":[135.50693,34.68147]}},{"type":"Feature","properties":{"id":3,"type":"領事館","icon":"🇮🇳","country":"インド","name":"在福岡インド総領事館","address":"福岡市博多区中洲中島町1-3 福岡Kスクエア10階"},"geometry":{"type":"Point","coordinates":[130.40353,33.59502]}},{"type":"Feature","properties":{"id":4,"type":"大使館","icon":"🇮🇩","country":"インドネシア共和国","name":"インドネシア共和国大使館","address":"東京都品川区東五反田5-2-9"},"geometry":{"type":"Point","coordinates":[139.72131,35.63139]}},{"type":"Feature","properties":{"id":5,"type":"領事館","icon":"🇮🇩","country":"インドネシア共和国","name":"在大阪インドネシア共和国総領事館","address":"大阪市北区中之島6-2-40 中之島インテスビル22階"},"geometry":{"type":"Point","coordinates":[135.48457,34.68825]}},{"type":"Feature","properties":{"id":6,"type":"領事館","icon":"🇮🇩","country":"インドネシア共和国","name":"在札幌インドネシア共和国名誉領事館","address":"札幌市東区北19条東1-1-1"},"geometry":{"type":"Point","coordinates":[141.34993,43.08363]}},{"type":"Feature","properties":{"id":7,"type":"領事館","icon":"🇮🇩","country":"インドネシア共和国","name":"在名古屋インドネシア共和国名誉領事館","address":"愛知県名古屋市北区黒川本通2-46"},"geometry":{"type":"Point","coordinates":[136.91269,35.19839]}},{"type":"Feature","properties":{"id":8,"type":"領事館","icon":"🇮🇩","country":"インドネシア共和国","name":"在福岡インドネシア共和国名誉領事館","address":"福岡市南区那の川1丁目23-35"},"geometry":{"type":"Point","coordinates":[130.41301,33.57594]}},{"type":"Feature","properties":{"id":9,"type":"大使館","icon":"🇰🇭","country":"カンボジア王国","name":"カンボジア王国大使館","address":"東京都港区赤坂8丁目6-9"},"geometry":{"type":"Point","coordinates":[139.72885,35.67108]}},{"type":"Feature","properties":{"id":10,"type":"領事館","icon":"🇰🇭","country":"カンボジア王国","name":"在仙台カンボジア王国名誉領事館","address":"宮城県仙台市青葉区上杉1-6-6 イ-スタンビル7階"},"geometry":{"type":"Point","coordinates":[140.86989,38.27006]}},{"type":"Feature","properties":{"id":11,"type":"領事館","icon":"🇰🇭","country":"カンボジア王国","name":"在名古屋カンボジア王国名誉領事館","address":"名古屋市千種区高見2-7-7 ユニオンビル3階"},"geometry":{"type":"Point","coordinates":[136.94605,35.16984]}},{"type":"Feature","properties":{"id":12,"type":"領事館","icon":"🇰🇭","country":"カンボジア王国","name":"在大阪カンボジア王国名誉領事館","address":"大阪市北区茶屋町12-6"},"geometry":{"type":"Point","coordinates":[135.49855,34.70695]}},{"type":"Feature","properties":{"id":13,"type":"領事館","icon":"🇰🇭","country":"カンボジア王国","name":"在境港カンボジア王国名誉領事館","address":"鳥取県境港市竹内団地252-2 境夢みなとターミナル2階"},"geometry":{"type":"Point","coordinates":[133.25366,35.52226]}},{"type":"Feature","properties":{"id":14,"type":"領事館","icon":"🇰🇭","country":"カンボジア王国","name":"在福岡カンボジア王国名誉領事館","address":"福岡市中央区天神1-4-1 西日本新聞会館15階"},"geometry":{"type":"Point","coordinates":[130.40193,33.58846]}},{"type":"Feature","properties":{"id":15,"type":"大使館","icon":"🇸🇬","country":"シンガポール共和国","name":"シンガポール共和国大使館","address":"東京都港区六本木5丁目12-3"},"geometry":{"type":"Point","coordinates":[139.73423,35.6576]}},{"type":"Feature","properties":{"id":16,"type":"大使館","icon":"🇸🇬","country":"シンガポール共和国","name":"シンガポール共和国大使館（商務部・産業部・海運部）","address":"東京都千代田区丸の内2-4-1 丸の内ビルディング34階"},"geometry":{"type":"Point","coordinates":[139.76379,35.68105]}},{"type":"Feature","properties":{"id":19,"type":"大使館","icon":"🇸🇬","country":"シンガポール共和国","name":"シンガポール共和国大使館（開発部）","address":"東京都港区六本木5-11-22 秀和鳥居坂レジデンス408"},"geometry":{"type":"Point","coordinates":[139.73363,35.65763]}},{"type":"Feature","properties":{"id":20,"type":"領事館","icon":"🇸🇬","country":"シンガポール共和国","name":"在名古屋シンガポール共和国名誉総領事館","address":"名古屋市中区葵3-21-19"},"geometry":{"type":"Point","coordinates":[136.92683,35.16965]}},{"type":"Feature","properties":{"id":21,"type":"領事館","icon":"🇸🇬","country":"シンガポール共和国","name":"在大阪シンガポール共和国名誉総領事館","address":"大阪府堺市堺区老松町3-77"},"geometry":{"type":"Point","coordinates":[135.4662,34.56035]}},{"type":"Feature","properties":{"id":22,"type":"大使館","icon":"🇱🇰","country":"スリランカ民主社会主義共和国","name":"スリランカ民主社会主義共和国大使館","address":"東京都港区高輪2丁目1-54"},"geometry":{"type":"Point","coordinates":[139.73687,35.63987]}},{"type":"Feature","properties":{"id":23,"type":"領事館","icon":"🇱🇰","country":"スリランカ民主社会主義共和国","name":"在小樽スリランカ民主社会主義共和国名誉領事館","address":"小樽市稲穂3-5-14"},"geometry":{"type":"Point","coordinates":[140.99626,43.1988]}},{"type":"Feature","properties":{"id":24,"type":"領事館","icon":"🇱🇰","country":"スリランカ民主社会主義共和国","name":"在名古屋スリランカ民主社会主義共和国名誉領事館","address":"愛知県名古屋市西区則武新町3丁目1-36"},"geometry":{"type":"Point","coordinates":[136.88129,35.17779]}},{"type":"Feature","properties":{"id":25,"type":"大使館","icon":"🇹🇭","country":"タイ王国","name":"タイ王国大使館","address":"東京都品川区上大崎3-14-6"},"geometry":{"type":"Point","coordinates":[139.71961,35.63192]}},{"type":"Feature","properties":{"id":26,"type":"大使館","icon":"🇹🇭","country":"タイ王国","name":"タイ王国大使館（陸・海・空軍武官事務所）","address":"東京都目黒区下目黒6-15-21"},"geometry":{"type":"Point","coordinates":[139.69917,35.62909]}},{"type":"Feature","properties":{"id":27,"type":"大使館","icon":"🇹🇭","country":"タイ王国","name":"タイ王国大使館（商務参事官事務所）","address":"東京都千代田区麹町5-4 セタニビル6階"},"geometry":{"type":"Point","coordinates":[139.73374,35.68484]}},{"type":"Feature","properties":{"id":28,"type":"大使館","icon":"🇹🇭","country":"タイ王国","name":"タイ王国大使館（経済投資事務所）","address":"東京都港区赤坂2-11-3 福田ビルウエスト8階"},"geometry":{"type":"Point","coordinates":[139.74124,35.67017]}},{"type":"Feature","properties":{"id":29,"type":"大使館","icon":"🇹🇭","country":"タイ王国","name":"タイ王国大使館（農務担当官事務所）","address":"東京都目黒区目黒3-13-22 コタキテラスC"},"geometry":{"type":"Point","coordinates":[139.70527,35.63252]}},{"type":"Feature","properties":{"id":30,"type":"領事館","icon":"🇹🇭","country":"タイ王国","name":"在大阪タイ王国総領事館","address":"大阪市中央区久太郎町1丁目9-16 バンコク銀行ビル"},"geometry":{"type":"Point","coordinates":[135.50658,34.68082]}},{"type":"Feature","properties":{"id":31,"type":"領事館","icon":"🇹🇭","country":"タイ王国","name":"在福岡タイ王国総領事館","address":"福岡市中央区天神4-1-37 第1明星ビル2階"},"geometry":{"type":"Point","coordinates":[130.4015,33.59387]}},{"type":"Feature","properties":{"id":32,"type":"領事館","icon":"🇹🇭","country":"タイ王国","name":"在札幌タイ王国名誉領事館","address":"札幌市北区新琴似7条1-2-39 ニトリビル4階"},"geometry":{"type":"Point","coordinates":[141.33545,43.11062]}},{"type":"Feature","properties":{"id":33,"type":"領事館","icon":"🇹🇭","country":"タイ王国","name":"在名古屋タイ王国名誉総領事館","address":"名古屋市中区錦3丁目6-29"},"geometry":{"type":"Point","coordinates":[136.9068,35.17199]}},{"type":"Feature","properties":{"id":34,"type":"大使館","icon":"🇰🇷","country":"大韓民国","name":"大韓民国大使館","address":"東京都港区南麻布1-2-5"},"geometry":{"type":"Point","coordinates":[139.73282,35.65204]}},{"type":"Feature","properties":{"id":35,"type":"大使館","icon":"🇰🇷","country":"大韓民国","name":"大韓民国大使館（領事部）","address":"東京都港区南麻布1-7-32"},"geometry":{"type":"Point","coordinates":[139.737,35.65156]}},{"type":"Feature","properties":{"id":36,"type":"大使館","icon":"🇰🇷","country":"大韓民国","name":"大韓民国大使館（文化部（韓国文化院））","address":"東京都新宿区四谷4-4-10"},"geometry":{"type":"Point","coordinates":[139.71722,35.68739]}},{"type":"Feature","properties":{"id":37,"type":"領事館","icon":"🇰🇷","country":"大韓民国","name":"在札幌大韓民国総領事館","address":"札幌市中央区北2条西12丁目1-4"},"geometry":{"type":"Point","coordinates":[141.33795,43.06226]}},{"type":"Feature","properties":{"id":38,"type":"領事館","icon":"🇰🇷","country":"大韓民国","name":"在仙台大韓民国総領事館","address":"仙台市青葉区上杉1丁目4-3"},"geometry":{"type":"Point","coordinates":[140.87119,38.26902]}},{"type":"Feature","properties":{"id":39,"type":"領事館","icon":"🇰🇷","country":"大韓民国","name":"在横浜大韓民国総領事館","address":"横浜市中区山手町118"},"geometry":{"type":"Point","coordinates":[139.65556,35.43869]}},{"type":"Feature","properties":{"id":40,"type":"領事館","icon":"🇰🇷","country":"大韓民国","name":"在新潟大韓民国総領事館","address":"新潟市万代島5-1 万代島ビル8階"},"geometry":{"type":"Point","coordinates":[139.03654,37.91608]}},{"type":"Feature","properties":{"id":41,"type":"領事館","icon":"🇰🇷","country":"大韓民国","name":"在名古屋大韓民国総領事館","address":"名古屋市中村区名駅南1丁目19-12"},"geometry":{"type":"Point","coordinates":[136.88733,35.16638]}},{"type":"Feature","properties":{"id":42,"type":"領事館","icon":"🇰🇷","country":"大韓民国","name":"在大阪大韓民国総領事館","address":"大阪市中央区西心斎橋2-3-4"},"geometry":{"type":"Point","coordinates":[135.50009,34.67003]}},{"type":"Feature","properties":{"id":43,"type":"領事館","icon":"🇰🇷","country":"大韓民国","name":"在大阪大韓民国総領事館","address":"大阪市北区東天満1-1-15"},"geometry":{"type":"Point","coordinates":[135.51775,34.69632]}},{"type":"Feature","properties":{"id":44,"type":"領事館","icon":"🇰🇷","country":"大韓民国","name":"在神戸大韓民国総領事館","address":"神戸市中央区中山手通2-21-5"},"geometry":{"type":"Point","coordinates":[135.18878,34.69535]}},{"type":"Feature","properties":{"id":45,"type":"領事館","icon":"🇰🇷","country":"大韓民国","name":"在広島大韓民国総領事館","address":"広島市南区翠5-9-17"},"geometry":{"type":"Point","coordinates":[132.46765,34.36891]}},{"type":"Feature","properties":{"id":46,"type":"領事館","icon":"🇰🇷","country":"大韓民国","name":"在福岡大韓民国総領事館","address":"福岡市中央区地行浜1丁目1-3"},"geometry":{"type":"Point","coordinates":[130.36314,33.59123]}},{"type":"Feature","properties":{"id":47,"type":"領事館","icon":"🇰🇷","country":"大韓民国","name":"在静岡大韓民国名誉領事館","address":"静岡県静岡市葵区黒金町20-8"},"geometry":{"type":"Point","coordinates":[138.38597,34.97085]}},{"type":"Feature","properties":{"id":48,"type":"領事館","icon":"🇰🇷","country":"大韓民国","name":"在下関大韓民国名誉総領事館","address":"山口県下関市東大和町2-13-10 山口韓国総合会館2階"},"geometry":{"type":"Point","coordinates":[130.92152,33.94229]}},{"type":"Feature","properties":{"id":49,"type":"領事館","icon":"🇰🇷","country":"大韓民国","name":"在鹿児島大韓民国名誉総領事館","address":"鹿児島県日置市東市来町美山1715"},"geometry":{"type":"Point","coordinates":[130.36092,31.64435]}},{"type":"Feature","properties":{"id":50,"type":"大使館","icon":"🇨🇳","country":"中華人民共和国","name":"中華人民共和国大使館","address":"東京都港区元麻布3丁目4-33"},"geometry":{"type":"Point","coordinates":[139.72731,35.65635]}},{"type":"Feature","properties":{"id":51,"type":"大使館","icon":"🇨🇳","country":"中華人民共和国","name":"中華人民共和国大使館（領事部）","address":"東京都品川区東五反田4-6-6 高輪台グリーンビル"},"geometry":{"type":"Point","coordinates":[139.7286,35.63068]}},{"type":"Feature","properties":{"id":52,"type":"領事館","icon":"🇨🇳","country":"中華人民共和国","name":"在札幌中華人民共和国総領事館","address":"札幌市中央区南十三条西23丁目5-1"},"geometry":{"type":"Point","coordinates":[141.32463,43.03962]}},{"type":"Feature","properties":{"id":53,"type":"領事館","icon":"🇨🇳","country":"中華人民共和国","name":"在新潟中華人民共和国総領事館","address":"新潟市中央区西大畑町5220-18"},"geometry":{"type":"Point","coordinates":[139.03615,37.92387]}},{"type":"Feature","properties":{"id":54,"type":"領事館","icon":"🇨🇳","country":"中華人民共和国","name":"在名古屋中華人民共和国総領事館","address":"名古屋市東区東桜2丁目8-37"},"geometry":{"type":"Point","coordinates":[136.91579,35.17312]}},{"type":"Feature","properties":{"id":55,"type":"領事館","icon":"🇨🇳","country":"中華人民共和国","name":"在大阪中華人民共和国総領事館","address":"大阪市西区靱本町3丁目9-2"},"geometry":{"type":"Point","coordinates":[135.48741,34.68285]}},{"type":"Feature","properties":{"id":56,"type":"領事館","icon":"🇨🇳","country":"中華人民共和国","name":"在大阪中華人民共和国総領事館","address":"吹田市江坂町5丁目4-4"},"geometry":{"type":"Point","coordinates":[135.49924,34.76969]}},{"type":"Feature","properties":{"id":57,"type":"領事館","icon":"🇨🇳","country":"中華人民共和国","name":"在福岡中華人民共和国総領事館","address":"福岡市中央区地行浜1丁目3-3"},"geometry":{"type":"Point","coordinates":[130.36118,33.59028]}},{"type":"Feature","properties":{"id":58,"type":"領事館","icon":"🇨🇳","country":"中華人民共和国","name":"在長崎中華人民共和国総領事館","address":"長崎市橋口町10番35号"},"geometry":{"type":"Point","coordinates":[129.86653,32.77826]}},{"type":"Feature","properties":{"id":59,"type":"大使館","icon":"🇳🇵","country":"ネパール","name":"ネパール大使館","address":"東京都目黒区下目黒6-20-28 福川ハウスB"},"geometry":{"type":"Point","coordinates":[139.69795,35.62781]}},{"type":"Feature","properties":{"id":60,"type":"領事館","icon":"🇳🇵","country":"ネパール","name":"在大阪ネパール名誉総領事館","address":"大阪市天王寺区上本町6丁目9-21"},"geometry":{"type":"Point","coordinates":[135.51904,34.66398]}},{"type":"Feature","properties":{"id":61,"type":"領事館","icon":"🇳🇵","country":"ネパール","name":"在福岡ネパール名誉領事館","address":"福岡県福岡市博多区博多駅東1-1-33 はかた近代ビル4階"},"geometry":{"type":"Point","coordinates":[130.42171,33.59214]}},{"type":"Feature","properties":{"id":62,"type":"大使館","icon":"🇵🇰","country":"パキスタン・イスラム共和国","name":"パキスタン・イスラム共和国大使館","address":"東京都港区南麻布4-6-17"},"geometry":{"type":"Point","coordinates":[139.72802,35.65006]}},{"type":"Feature","properties":{"id":63,"type":"大使館","icon":"🇧🇩","country":"バングラデシュ人民共和国","name":"バングラデシュ人民共和国大使館","address":"東京都千代田区紀尾井町3-29"},"geometry":{"type":"Point","coordinates":[139.73758,35.68184]}},{"type":"Feature","properties":{"id":64,"type":"領事館","icon":"🇧🇩","country":"バングラデシュ人民共和国","name":"在名古屋バングラデシュ人民共和国名誉領事館","address":"名古屋市中村区名駅4-7-1 ミッドランドスクエア12階"},"geometry":{"type":"Point","coordinates":[136.88564,35.17077]}},{"type":"Feature","properties":{"id":65,"type":"領事館","icon":"🇧🇩","country":"バングラデシュ人民共和国","name":"在大阪バングラデシュ人民共和国名誉領事館","address":"大阪市中央区淡路町4-4-13 南星ビル3階"},"geometry":{"type":"Point","coordinates":[135.49925,34.68689]}},{"type":"Feature","properties":{"id":66,"type":"大使館","icon":"🇹🇱","country":"東ティモール民主共和国","name":"東ティモール民主共和国大使館","address":"東京都千代田区富士見1丁目8-9"},"geometry":{"type":"Point","coordinates":[139.74497,35.69779]}},{"type":"Feature","properties":{"id":67,"type":"領事館","icon":"🇹🇱","country":"東ティモール民主共和国","name":"在東京東ティモール民主共和国名誉総領事館","address":"東京都世田谷区祖師谷5丁目22-34"},"geometry":{"type":"Point","coordinates":[139.60602,35.65139]}},{"type":"Feature","properties":{"id":68,"type":"大使館","icon":"🇧🇹","country":"ブータン王国","name":"ブータン王国大使館（兼轄、インド常駐）","address":"Chandra Gupta Marg, Chanakyapuri, New Delhi-110 021, India"},"geometry":{"type":"Point","coordinates":[77.18287,28.59486]}},{"type":"Feature","properties":{"id":69,"type":"領事館","icon":"🇧🇹","country":"ブータン王国","name":"在東京ブータン王国名誉総領事館","address":"東京都港区芝3-6-9 芝公園プラザ3階"},"geometry":{"type":"Point","coordinates":[139.74929,35.65203]}},{"type":"Feature","properties":{"id":70,"type":"領事館","icon":"🇧🇹","country":"ブータン王国","name":"在大阪ブータン王国名誉領事館","address":"大阪市中央区伏見町4丁目3-9 HK淀屋橋ガーデンアベニュー"},"geometry":{"type":"Point","coordinates":[135.49942,34.68916]}},{"type":"Feature","properties":{"id":71,"type":"領事館","icon":"🇧🇹","country":"ブータン王国","name":"在鹿児島ブータン王国名誉総領事館","address":"鹿児島県鹿児島市唐湊4-21-1"},"geometry":{"type":"Point","coordinates":[130.53969,31.56439]}},{"type":"Feature","properties":{"id":72,"type":"大使館","icon":"🇵🇭","country":"フィリピン共和国","name":"フィリピン共和国大使館","address":"東京都港区六本木5-15-5"},"geometry":{"type":"Point","coordinates":[139.73554,35.66007]}},{"type":"Feature","properties":{"id":73,"type":"大使館","icon":"🇵🇭","country":"フィリピン共和国","name":"フィリピン共和国大使館（貿易投資部）","address":"東京都港区麻布台1-11-9 BPRプレイス神谷町11階A"},"geometry":{"type":"Point","coordinates":[139.7436,35.66071]}},{"type":"Feature","properties":{"id":74,"type":"領事館","icon":"🇵🇭","country":"フィリピン共和国","name":"在名古屋フィリピン共和国総領事館","address":"名古屋市中区栄3-31-3"},"geometry":{"type":"Point","coordinates":[136.90826,35.16413]}},{"type":"Feature","properties":{"id":75,"type":"領事館","icon":"🇵🇭","country":"フィリピン共和国","name":"在大阪フィリピン共和国総領事館","address":"大阪市中央区城見2-1-61 Twin21　MIDタワー24階"},"geometry":{"type":"Point","coordinates":[135.53099,34.69236]}},{"type":"Feature","properties":{"id":76,"type":"領事館","icon":"🇵🇭","country":"フィリピン共和国","name":"在大阪フィリピン共和国総領事館","address":"大阪市中央区本町橋2-8 大阪商工会議所 ビル2階"},"geometry":{"type":"Point","coordinates":[135.51155,34.68451]}},{"type":"Feature","properties":{"id":77,"type":"領事館","icon":"🇵🇭","country":"フィリピン共和国","name":"在大阪フィリピン共和国総領事館","address":"大阪市中央区南本町3-6-14 イトウビル6階"},"geometry":{"type":"Point","coordinates":[135.50082,34.68257]}},{"type":"Feature","properties":{"id":78,"type":"領事館","icon":"🇵🇭","country":"フィリピン共和国","name":"在大阪フィリピン共和国総領事館","address":"大阪市中央区淡路町4-3-5 アーバンセンター御堂筋7階"},"geometry":{"type":"Point","coordinates":[135.49942,34.68681]}},{"type":"Feature","properties":{"id":79,"type":"領事館","icon":"🇵🇭","country":"フィリピン共和国","name":"在札幌フィリピン共和国名誉総領事館","address":"北海道札幌市西区八軒一条西1-2-10"},"geometry":{"type":"Point","coordinates":[141.30682,43.08216]}},{"type":"Feature","properties":{"id":80,"type":"大使館","icon":"🇧🇳","country":"ブルネイ・ダルサラーム国","name":"ブルネイ・ダルサラーム国大使館","address":"東京都品川区北品川6丁目5-2"},"geometry":{"type":"Point","coordinates":[139.73256,35.62589]}},{"type":"Feature","properties":{"id":81,"type":"大使館","icon":"🇻🇳","country":"ベトナム社会主義共和国","name":"ベトナム社会主義共和国大使館","address":"東京都渋谷区元代々木町50-11"},"geometry":{"type":"Point","coordinates":[139.68589,35.67282]}},{"type":"Feature","properties":{"id":82,"type":"大使館","icon":"🇻🇳","country":"ベトナム社会主義共和国","name":"ベトナム社会主義共和国大使館（武官部）","address":"東京都目黒区大橋2-7-15"},"geometry":{"type":"Point","coordinates":[139.68849,35.65458]}},{"type":"Feature","properties":{"id":83,"type":"領事館","icon":"🇻🇳","country":"ベトナム社会主義共和国","name":"在大阪ベトナム社会主義共和国総領事館","address":"堺市堺区市之町東4-2-15"},"geometry":{"type":"Point","coordinates":[135.47759,34.5765]}},{"type":"Feature","properties":{"id":84,"type":"領事館","icon":"🇻🇳","country":"ベトナム社会主義共和国","name":"在福岡ベトナム社会主義共和国総領事館","address":"福岡市博多区中洲5-3-8  アクア博多4階"},"geometry":{"type":"Point","coordinates":[130.40413,33.59322]}},{"type":"Feature","properties":{"id":85,"type":"領事館","icon":"🇻🇳","country":"ベトナム社会主義共和国","name":"在札幌ベトナム社会主義共和国名誉領事館","address":"北海道札幌市中央区南8条西15-2-1"},"geometry":{"type":"Point","coordinates":[141.33376,43.04875]}},{"type":"Feature","properties":{"id":86,"type":"領事館","icon":"🇻🇳","country":"ベトナム社会主義共和国","name":"在釧路ベトナム社会主義共和国名誉領事館","address":"北海道釧路市大町1-1-10 大町ビル4階"},"geometry":{"type":"Point","coordinates":[144.38373,42.98016]}},{"type":"Feature","properties":{"id":87,"type":"領事館","icon":"🇻🇳","country":"ベトナム社会主義共和国","name":"在名古屋ベトナム社会主義共和国名誉領事館","address":"愛知県名古屋市千種区法王町2-5-G10D"},"geometry":{"type":"Point","coordinates":[136.95625,35.16956]}},{"type":"Feature","properties":{"id":88,"type":"領事館","icon":"🇻🇳","country":"ベトナム社会主義共和国","name":"在三重ベトナム社会主義共和国名誉領事館","address":"三重県鈴鹿市白子駅前13-1 HOWAビル鈴鹿3階"},"geometry":{"type":"Point","coordinates":[136.58809,34.83688]}},{"type":"Feature","properties":{"id":89,"type":"大使館","icon":"🇲🇾","country":"マレーシア","name":"マレーシア大使館","address":"東京都渋谷区南平台町20-16"},"geometry":{"type":"Point","coordinates":[139.6955,35.65233]}},{"type":"Feature","properties":{"id":90,"type":"大使館","icon":"🇲🇲","country":"ミャンマー連邦共和国","name":"ミャンマー連邦共和国大使館","address":"東京都品川区北品川4丁目8-26"},"geometry":{"type":"Point","coordinates":[139.73604,35.61997]}},{"type":"Feature","properties":{"id":91,"type":"大使館","icon":"🇲🇲","country":"ミャンマー連邦共和国","name":"ミャンマー連邦共和国大使館（武官部）","address":"東京都品川区東五反田5-12-20"},"geometry":{"type":"Point","coordinates":[139.72393,35.6294]}},{"type":"Feature","properties":{"id":92,"type":"領事館","icon":"🇲🇲","country":"ミャンマー連邦共和国","name":"在名古屋ミャンマー連邦共和国名誉領事館","address":"愛知県名古屋市西区山田町上小田井東古川3117"},"geometry":{"type":"Point","coordinates":[136.88171,35.2139]}},{"type":"Feature","properties":{"id":93,"type":"領事館","icon":"🇲🇲","country":"ミャンマー連邦共和国","name":"在神戸ミャンマー連邦共和国名誉領事館","address":"兵庫県神戸市東灘区森南町1-7-8"},"geometry":{"type":"Point","coordinates":[135.29244,34.72845]}},{"type":"Feature","properties":{"id":94,"type":"大使館","icon":"🇲🇻","country":"モルディブ共和国","name":"モルディブ共和国大使館","address":"東京都千代田区隼町3-7"},"geometry":{"type":"Point","coordinates":[139.74242,35.68116]}},{"type":"Feature","properties":{"id":95,"type":"大使館","icon":"🇲🇳","country":"モンゴル国","name":"モンゴル国大使館","address":"東京都渋谷区神山町21-4"},"geometry":{"type":"Point","coordinates":[139.68917,35.66226]}},{"type":"Feature","properties":{"id":96,"type":"領事館","icon":"🇲🇳","country":"モンゴル国","name":"在大阪モンゴル国総領事館","address":"大阪市中央区博労町1-4-10 博労町エステートビル3階"},"geometry":{"type":"Point","coordinates":[135.50902,34.67829]}},{"type":"Feature","properties":{"id":97,"type":"領事館","icon":"🇲🇳","country":"モンゴル国","name":"在札幌モンゴル国名誉領事館","address":"札幌市中央区北5条西10丁目 山一ビル1階"},"geometry":{"type":"Point","coordinates":[141.3402,43.06593]}},{"type":"Feature","properties":{"id":98,"type":"領事館","icon":"🇲🇳","country":"モンゴル国","name":"在新潟モンゴル国名誉領事館","address":"新潟市中央区新光町10-2"},"geometry":{"type":"Point","coordinates":[139.02062,37.89936]}},{"type":"Feature","properties":{"id":99,"type":"領事館","icon":"🇲🇳","country":"モンゴル国","name":"在富山モンゴル国名誉領事館","address":"富山県高岡市丸の内1-40 高岡商工ビル9階"},"geometry":{"type":"Point","coordinates":[137.02065,36.7536]}},{"type":"Feature","properties":{"id":100,"type":"領事館","icon":"🇲🇳","country":"モンゴル国","name":"在名古屋モンゴル国名誉領事館","address":" 愛知県名古屋市中川区打出2-70"},"geometry":{"type":"Point","coordinates":[136.83914,35.13569]}},{"type":"Feature","properties":{"id":101,"type":"領事館","icon":"🇲🇳","country":"モンゴル国","name":"在広島モンゴル国名誉領事館","address":" 広島市東区矢賀新町5-7-4"},"geometry":{"type":"Point","coordinates":[132.49986,34.38995]}},{"type":"Feature","properties":{"id":102,"type":"領事館","icon":"🇲🇳","country":"モンゴル国","name":"在徳島モンゴル国名誉領事館","address":"徳島県徳島市昭和町8-27 三木ビルディング3階"},"geometry":{"type":"Point","coordinates":[134.57425,34.05597]}},{"type":"Feature","properties":{"id":103,"type":"領事館","icon":"🇲🇳","country":"モンゴル国","name":"在福岡モンゴル国名誉領事館","address":"福岡県福岡市中央区渡辺通5-23-2 東急ドエルアルス天神705"},"geometry":{"type":"Point","coordinates":[130.40257,33.58775]}},{"type":"Feature","properties":{"id":104,"type":"大使館","icon":"🇱🇦","country":"ラオス人民民主共和国","name":"ラオス人民民主共和国大使館","address":"東京都港区西麻布3丁目3-22"},"geometry":{"type":"Point","coordinates":[139.7269,35.65819]}},{"type":"Feature","properties":{"id":105,"type":"領事館","icon":"🇱🇦","country":"ラオス人民民主共和国","name":"在函館ラオス人民民主共和国名誉領事館","address":"北海道函館市若松町7-15"},"geometry":{"type":"Point","coordinates":[140.72746,41.772]}},{"type":"Feature","properties":{"id":106,"type":"領事館","icon":"🇱🇦","country":"ラオス人民民主共和国","name":"在名古屋ラオス人民民主共和国名誉領事館","address":"名古屋市中区上前津2-9-29"},"geometry":{"type":"Point","coordinates":[136.90566,35.15529]}},{"type":"Feature","properties":{"id":107,"type":"領事館","icon":"🇱🇦","country":"ラオス人民民主共和国","name":"在京都ラオス人民民主共和国名誉領事館","address":"京都府京都市下京区七条御所ノ内中町64-1"},"geometry":{"type":"Point","coordinates":[135.73286,34.98605]}},{"type":"Feature","properties":{"id":108,"type":"領事館","icon":"🇱🇦","country":"ラオス人民民主共和国","name":"在福岡ラオス人民民主共和国名誉領事館","address":"福岡市博多区博多駅東1-18-33 博多イーストテラス8階"},"geometry":{"type":"Point","coordinates":[130.42503,33.59005]}},{"type":"Feature","properties":{"id":109,"type":"領事館","icon":"🇱🇦","country":"ラオス人民民主共和国","name":"在那覇ラオス人民民主共和国名誉領事館","address":"沖縄県那覇市赤嶺2-12-4"},"geometry":{"type":"Point","coordinates":[127.66041,26.19604]}},{"type":"Feature","properties":{"id":110,"type":"大使館","icon":"🇦🇺","country":"オーストラリア","name":"オーストラリア大使館","address":"東京都港区三田2丁目1-14"},"geometry":{"type":"Point","coordinates":[139.73922,35.65175]}},{"type":"Feature","properties":{"id":111,"type":"領事館","icon":"🇦🇺","country":"オーストラリア","name":"在大阪オーストラリア総領事館","address":"大阪市中央区城見2丁目1-61 Twin21 MIDタワー16階"},"geometry":{"type":"Point","coordinates":[135.53099,34.69236]}},{"type":"Feature","properties":{"id":112,"type":"大使館","icon":"🇰🇮","country":"キリバス共和国","name":"キリバス共和国大使館（兼轄、本国常駐）","address":"Ministry of Foreign Affairs and Immigration, Office of Te Beretitenti, Bairiki, Tarawa, Kiribati "},"geometry":{"type":"Point","coordinates":[172.97767,1.32859]}},{"type":"Feature","properties":{"id":113,"type":"大使館","icon":"🇼🇸","country":"サモア独立国","name":"サモア独立国大使館","address":"港区麻布台3丁目5-7 麻布アメレックスビル5階"},"geometry":{"type":"Point","coordinates":[139.74036,35.65998]}},{"type":"Feature","properties":{"id":114,"type":"領事館","icon":"🇼🇸","country":"サモア独立国","name":"在福島サモア独立国名誉領事館","address":"福島県いわき市常磐藤原町蕨平50番地"},"geometry":{"type":"Point","coordinates":[140.81586,36.99587]}},{"type":"Feature","properties":{"id":115,"type":"領事館","icon":"🇼🇸","country":"サモア独立国","name":"在福岡サモア独立国名誉領事館","address":"福岡県福岡市博多区空港前2-2-26"},"geometry":{"type":"Point","coordinates":[130.44905,33.59964]}},{"type":"Feature","properties":{"id":116,"type":"大使館","icon":"🇸🇧","country":"ソロモン諸島","name":"ソロモン諸島大使館（兼轄、本国常駐）","address":"Ministry of Foreign Affairs and External Trade, P.O. Box G10, Honiara, Solomon Islands"},"geometry":{"type":"Point","coordinates":[159.95036,-9.42948]}},{"type":"Feature","properties":{"id":117,"type":"領事館","icon":"🇸🇧","country":"ソロモン諸島","name":"在東京ソロモン諸島名誉領事館","address":"東京都中央区銀座1-9-2"},"geometry":{"type":"Point","coordinates":[139.76931,35.67433]}},{"type":"Feature","properties":{"id":118,"type":"領事館","icon":"🇹🇻","country":"ツバル","name":"在東京ツバル名誉総領事館","address":"東京都新宿区西新宿6-16-6 タツミビル5階"},"geometry":{"type":"Point","coordinates":[139.68783,35.69176]}},{"type":"Feature","properties":{"id":119,"type":"大使館","icon":"🇹🇴","country":"トンガ王国","name":"トンガ王国大使館","address":" 東京都港区麻布台1-9-10 飯倉ITビル2階"},"geometry":{"type":"Point","coordinates":[139.74264,35.65977]}},{"type":"Feature","properties":{"id":120,"type":"領事館","icon":"🇳🇺","country":"ニウエ","name":"在東京ニウエ名誉領事館","address":"東京都目黒区青葉台1-6-59 青葉台ビル2階"},"geometry":{"type":"Point","coordinates":[139.69838,35.64791]}},{"type":"Feature","properties":{"id":121,"type":"大使館","icon":"🇳🇿","country":"ニュージーランド","name":"ニュージーランド大使館","address":"東京都渋谷区神山町20-40"},"geometry":{"type":"Point","coordinates":[139.69051,35.66375]}},{"type":"Feature","properties":{"id":122,"type":"領事館","icon":"🇳🇿","country":"ニュージーランド","name":"在札幌ニュージーランド名誉領事館","address":"札幌市中央区北2条西10丁目2-7 Wall601号室"},"geometry":{"type":"Point","coordinates":[141.34117,43.06233]}},{"type":"Feature","properties":{"id":123,"type":"領事館","icon":"🇳🇿","country":"ニュージーランド","name":"在大阪ニュージーランド名誉領事館","address":"大阪市浪速区敷津東1-2-47"},"geometry":{"type":"Point","coordinates":[135.50043,34.65871]}},{"type":"Feature","properties":{"id":124,"type":"領事館","icon":"🇳🇿","country":"ニュージーランド","name":"在名古屋ニュージーランド名誉領事館","address":"名古屋市中川区福住町2-26"},"geometry":{"type":"Point","coordinates":[136.88127,35.15814]}},{"type":"Feature","properties":{"id":125,"type":"領事館","icon":"🇳🇿","country":"ニュージーランド","name":"在福岡ニュージーランド名誉領事館","address":"福岡市中央区天神1-11-1 ONE FUKUOKA BLDG.　10階"},"geometry":{"type":"Point","coordinates":[130.40036,33.59058]}},{"type":"Feature","properties":{"id":126,"type":"大使館","icon":"🇵🇬","country":"パプアニューギニア","name":"パプアニューギニア大使館","address":"東京都目黒区下目黒5丁目32-20"},"geometry":{"type":"Point","coordinates":[139.70335,35.6266]}},{"type":"Feature","properties":{"id":127,"type":"領事館","icon":"🇵🇬","country":"パプアニューギニア","name":"在室蘭パプアニューギニア名誉領事館","address":"北海道室蘭市入江1番地19"},"geometry":{"type":"Point","coordinates":[140.9767,42.32225]}},{"type":"Feature","properties":{"id":128,"type":"領事館","icon":"🇵🇬","country":"パプアニューギニア","name":"在取手パプアニューギニア名誉領事館","address":"茨城県取手市戸頭1142-1 NCSビル6階"},"geometry":{"type":"Point","coordinates":[140.00145,35.91719]}},{"type":"Feature","properties":{"id":129,"type":"大使館","icon":"🇵🇼","country":"パラオ共和国","name":"パラオ共和国大使館","address":"東京都港区東麻布2-21-11"},"geometry":{"type":"Point","coordinates":[139.74137,35.65652]}},{"type":"Feature","properties":{"id":130,"type":"領事館","icon":"🇵🇼","country":"パラオ共和国","name":"在仙台パラオ共和国名誉総領事館","address":"仙台市青葉区国分町3-8-1 勾当台ビル4階"},"geometry":{"type":"Point","coordinates":[140.86902,38.26716]}},{"type":"Feature","properties":{"id":131,"type":"領事館","icon":"🇵🇼","country":"パラオ共和国","name":"在横浜パラオ共和国名誉総領事館","address":"神奈川県横浜市中区北仲通2-14"},"geometry":{"type":"Point","coordinates":[139.64015,35.44884]}},{"type":"Feature","properties":{"id":132,"type":"領事館","icon":"🇵🇼","country":"パラオ共和国","name":"在三島パラオ共和国名誉総領事館","address":"静岡県三島市本町13-21"},"geometry":{"type":"Point","coordinates":[138.91502,35.1194]}},{"type":"Feature","properties":{"id":133,"type":"大使館","icon":"🇫🇯","country":"フィジー共和国","name":"フィジー共和国大使館","address":"東京都港区麻布台2丁目3-5 ノア・ビルディング14階"},"geometry":{"type":"Point","coordinates":[139.74265,35.65931]}},{"type":"Feature","properties":{"id":134,"type":"領事館","icon":"🇫🇯","country":"フィジー共和国","name":"在江別（北海道）フィジー共和国名誉領事館","address":"北海道江別市江別太305-15"},"geometry":{"type":"Point","coordinates":[141.58534,43.10042]}},{"type":"Feature","properties":{"id":135,"type":"領事館","icon":"🇫🇯","country":"フィジー共和国","name":"在秋田フィジー共和国名誉領事館","address":"秋田県秋田市寺内大小路207-38"},"geometry":{"type":"Point","coordinates":[140.07248,39.73737]}},{"type":"Feature","properties":{"id":136,"type":"領事館","icon":"🇫🇯","country":"フィジー共和国","name":"在名古屋フィジー共和国名誉領事館","address":"名古屋市緑区高根山1-1601"},"geometry":{"type":"Point","coordinates":[136.94612,35.04618]}},{"type":"Feature","properties":{"id":137,"type":"領事館","icon":"🇫🇯","country":"フィジー共和国","name":"在大阪フィジー共和国名誉領事館","address":"大阪府大阪市淀川区宮原2-11-22 プレシオ新大阪501号"},"geometry":{"type":"Point","coordinates":[135.49992,34.73825]}},{"type":"Feature","properties":{"id":138,"type":"領事館","icon":"🇫🇯","country":"フィジー共和国","name":"在大分フィジー共和国名誉領事館","address":"大分市光吉890-1"},"geometry":{"type":"Point","coordinates":[131.60454,33.19801]}},{"type":"Feature","properties":{"id":139,"type":"大使館","icon":"🇲🇭","country":"マーシャル諸島共和国","name":"マーシャル諸島共和国大使館","address":"東京都世田谷区等々力8-2-22"},"geometry":{"type":"Point","coordinates":[139.65251,35.6129]}},{"type":"Feature","properties":{"id":140,"type":"大使館","icon":"🇫🇲","country":"ミクロネシア連邦","name":"ミクロネシア連邦大使館","address":"東京都目黒区目黒4-10-6"},"geometry":{"type":"Point","coordinates":[139.70419,35.63155]}},{"type":"Feature","properties":{"id":141,"type":"領事館","icon":"🇫🇲","country":"ミクロネシア連邦","name":"在釧路ミクロネシア連邦名誉総領事館","address":"北海道釧路市鳥取南5丁目12番5号"},"geometry":{"type":"Point","coordinates":[144.34186,43.00969]}},{"type":"Feature","properties":{"id":142,"type":"領事館","icon":"🇫🇲","country":"ミクロネシア連邦","name":"在大阪ミクロネシア連邦名誉総領事館","address":"大阪市北区天神橋2丁目北1-2"},"geometry":{"type":"Point","coordinates":[135.51222,34.69762]}},{"type":"Feature","properties":{"id":143,"type":"領事館","icon":"🇫🇲","country":"ミクロネシア連邦","name":"在高知ミクロネシア連邦名誉総領事館","address":"高知県高知市本町4-2-52 住友生命高知ビル5階"},"geometry":{"type":"Point","coordinates":[133.53398,33.5583]}},{"type":"Feature","properties":{"id":144,"type":"大使館","icon":"🇺🇸","country":"アメリカ合衆国","name":"アメリカ合衆国大使館","address":"東京都港区赤坂1丁目10-5"},"geometry":{"type":"Point","coordinates":[139.74316,35.66873]}},{"type":"Feature","properties":{"id":145,"type":"領事館","icon":"🇺🇸","country":"アメリカ合衆国","name":"在札幌アメリカ合衆国総領事館","address":"札幌市中央区北一条西28丁目"},"geometry":{"type":"Point","coordinates":[141.31438,43.0573]}},{"type":"Feature","properties":{"id":146,"type":"領事館","icon":"🇺🇸","country":"アメリカ合衆国","name":"在大阪・神戸アメリカ合衆国総領事館","address":"大阪市北区西天満2丁目11-5"},"geometry":{"type":"Point","coordinates":[135.50177,34.69682]}},{"type":"Feature","properties":{"id":147,"type":"領事館","icon":"🇺🇸","country":"アメリカ合衆国","name":"在那覇アメリカ合衆国総領事館","address":"沖縄県浦添市当山2丁目1-1"},"geometry":{"type":"Point","coordinates":[127.73872,26.25301]}},{"type":"Feature","properties":{"id":148,"type":"領事館","icon":"🇺🇸","country":"アメリカ合衆国","name":"在名古屋アメリカ合衆国領事館","address":"名古屋市中村区那古野1-47-1 名古屋国際センタービル6階"},"geometry":{"type":"Point","coordinates":[136.89087,35.17318]}},{"type":"Feature","properties":{"id":149,"type":"領事館","icon":"🇺🇸","country":"アメリカ合衆国","name":"在福岡アメリカ合衆国領事館","address":"福岡市中央区大濠2丁目5番26"},"geometry":{"type":"Point","coordinates":[130.37332,33.5881]}},{"type":"Feature","properties":{"id":150,"type":"大使館","icon":"🇨🇦","country":"カナダ","name":"カナダ大使館","address":"東京都港区赤坂7丁目3-38"},"geometry":{"type":"Point","coordinates":[139.72831,35.67341]}},{"type":"Feature","properties":{"id":151,"type":"領事館","icon":"🇨🇦","country":"カナダ","name":"在名古屋カナダ領事館","address":"名古屋市中区丸の内3丁目17-6 ナカトウ丸の内ビル6階"},"geometry":{"type":"Point","coordinates":[136.90573,35.17545]}},{"type":"Feature","properties":{"id":152,"type":"領事館","icon":"🇨🇦","country":"カナダ","name":"在札幌カナダ名誉領事館","address":"札幌市中央区大通西26丁目1番3"},"geometry":{"type":"Point","coordinates":[141.31853,43.05573]}},{"type":"Feature","properties":{"id":153,"type":"領事館","icon":"🇨🇦","country":"カナダ","name":"在広島カナダ名誉領事館","address":"広島市安佐南区祇園5-37-1"},"geometry":{"type":"Point","coordinates":[132.45537,34.44771]}},{"type":"Feature","properties":{"id":154,"type":"領事館","icon":"🇨🇦","country":"カナダ","name":"在福岡カナダ名誉領事館","address":" 福岡県福岡市中央区渡辺通2-1-82"},"geometry":{"type":"Point","coordinates":[130.40566,33.58267]}},{"type":"Feature","properties":{"id":155,"type":"大使館","icon":"🇦🇷","country":"アルゼンチン共和国","name":"アルゼンチン共和国大使館","address":"東京都港区元麻布2丁目14-14"},"geometry":{"type":"Point","coordinates":[139.73047,35.6526]}},{"type":"Feature","properties":{"id":156,"type":"大使館","icon":"🇦🇬","country":"アンティグア・バーブーダ","name":"アンティグア・バーブーダ大使館（兼轄、本国常駐）","address":"c/o Ministry of Foreign Affairs, International Trade and Immigration, Queen Elizabeth Highway, St. John's, Antigua"},"geometry":{"type":"Point","coordinates":[-61.83512,17.11841]}},{"type":"Feature","properties":{"id":157,"type":"領事館","icon":"🇦🇬","country":"アンティグア・バーブーダ","name":"在東京アンティグア・バーブーダ名誉領事館","address":"東京都品川区西五反田2-7-12 五反田アレー7階"},"geometry":{"type":"Point","coordinates":[139.72197,35.62658]}},{"type":"Feature","properties":{"id":158,"type":"大使館","icon":"🇺🇾","country":"ウルグアイ東方共和国","name":"ウルグアイ東方共和国大使館","address":"東京都港区芝大門一丁目2-1 大門KSビル7階"},"geometry":{"type":"Point","coordinates":[139.75429,35.66019]}},{"type":"Feature","properties":{"id":159,"type":"大使館","icon":"🇪🇨","country":"エクアドル共和国","name":"エクアドル共和国大使館","address":"港区麻布台3-5-7 麻布アメレックスビル8階"},"geometry":{"type":"Point","coordinates":[139.74036,35.65998]}},{"type":"Feature","properties":{"id":160,"type":"大使館","icon":"🇸🇻","country":"エルサルバドル共和国","name":"エルサルバドル共和国大使館","address":"東京都港区西麻布3-20-5 西麻布清美堂ビル"},"geometry":{"type":"Point","coordinates":[139.72618,35.66013]}},{"type":"Feature","properties":{"id":161,"type":"領事館","icon":"🇸🇻","country":"エルサルバドル共和国","name":"在横浜エルサルバドル共和国名誉領事館","address":"神奈川県横浜市中区本町1-3 綜通横浜ビル3F"},"geometry":{"type":"Point","coordinates":[139.64108,35.44788]}},{"type":"Feature","properties":{"id":162,"type":"大使館","icon":"🇬🇾","country":"ガイアナ協同共和国","name":"ガイアナ協同共和国大使館（兼轄、中国常駐）","address":"No.1 Xiu Shui Dong Jie, Jian Guo Men Wai, Beijing, China, 100600"},"geometry":{"type":"Point","coordinates":[116.44953,39.91627]}},{"type":"Feature","properties":{"id":163,"type":"大使館","icon":"🇨🇺","country":"キューバ共和国","name":"キューバ共和国大使館","address":"東京都港区東麻布1丁目28-4"},"geometry":{"type":"Point","coordinates":[139.74395,35.65545]}},{"type":"Feature","properties":{"id":164,"type":"大使館","icon":"🇬🇹","country":"グアテマラ共和国","name":"グアテマラ共和国大使館","address":"東京都港区東麻布1-10-11 東麻布アベビル4階"},"geometry":{"type":"Point","coordinates":[139.74473,35.65676]}},{"type":"Feature","properties":{"id":165,"type":"領事館","icon":"🇬🇹","country":"グアテマラ共和国","name":"在札幌グアテマラ共和国名誉領事館","address":"北海道札幌市北区北19条西3丁目 なごやビル"},"geometry":{"type":"Point","coordinates":[141.347,43.08386]}},{"type":"Feature","properties":{"id":166,"type":"領事館","icon":"🇬🇹","country":"グアテマラ共和国","name":"在横浜グアテマラ共和国名誉領事館","address":"横浜市青葉区美しが丘4-54-6"},"geometry":{"type":"Point","coordinates":[139.54353,35.58654]}},{"type":"Feature","properties":{"id":167,"type":"領事館","icon":"🇬🇹","country":"グアテマラ共和国","name":"在京都グアテマラ共和国名誉領事館","address":"京都市右京区西院笠目町6"},"geometry":{"type":"Point","coordinates":[135.71895,35.00415]}},{"type":"Feature","properties":{"id":168,"type":"大使館","icon":"🇨🇷","country":"コスタリカ共和国","name":"コスタリカ共和国大使館","address":"東京都港区六本木6-6-2 R-WEST"},"geometry":{"type":"Point","coordinates":[139.73155,35.66154]}},{"type":"Feature","properties":{"id":169,"type":"領事館","icon":"🇨🇷","country":"コスタリカ共和国","name":"在名古屋コスタリカ共和国名誉総領事館","address":"名古屋市中村区名駅4-7-1"},"geometry":{"type":"Point","coordinates":[136.88564,35.17077]}},{"type":"Feature","properties":{"id":170,"type":"大使館","icon":"🇨🇴","country":"コロンビア共和国","name":"コロンビア共和国大使館","address":"東京都品川区上大崎3丁目10-53"},"geometry":{"type":"Point","coordinates":[139.71776,35.63215]}},{"type":"Feature","properties":{"id":171,"type":"大使館","icon":"🇨🇴","country":"コロンビア共和国","name":"コロンビア共和国大使館（商務部）","address":"東京都港区六本木1-9-10"},"geometry":{"type":"Point","coordinates":[139.7419,35.66358]}},{"type":"Feature","properties":{"id":172,"type":"領事館","icon":"🇨🇴","country":"コロンビア共和国","name":"在名古屋コロンビア共和国名誉領事館","address":"愛知県名古屋市中区松原町2丁目10番7号"},"geometry":{"type":"Point","coordinates":[136.89566,35.15799]}},{"type":"Feature","properties":{"id":173,"type":"領事館","icon":"🇨🇴","country":"コロンビア共和国","name":"在大阪コロンビア共和国名誉領事館","address":"大阪市西区南堀江2-13-22"},"geometry":{"type":"Point","coordinates":[135.49069,34.6727]}},{"type":"Feature","properties":{"id":174,"type":"大使館","icon":"🇯🇲","country":"ジャマイカ","name":"ジャマイカ大使館","address":"東京都港区元麻布2丁目13-1"},"geometry":{"type":"Point","coordinates":[139.73073,35.65426]}},{"type":"Feature","properties":{"id":175,"type":"大使館","icon":"🇸🇷","country":"スリナム共和国","name":"スリナム共和国大使館（兼轄、中国常駐）","address":"Room 2-2-22, Jianwai Diplomatic Residence Compound, Jianguomewai Dajie, No.1 Xiushuijie, Chaoyang District、Beijing, China, 100600"},"geometry":{"type":"Point","coordinates":[116.46483,39.95299]}},{"type":"Feature","properties":{"id":176,"type":"大使館","icon":"🇰🇳","country":"セントクリストファー・ネービス","name":"セントクリストファー・ネービス大使館（兼轄、台湾常駐）","address":"5F、No.9-1、Lane62、Tianmu W. Rd., Taipei 11157、Taiwan、R.O.C."},"geometry":{"type":"Point","coordinates":[121.52613,25.1186]}},{"type":"Feature","properties":{"id":177,"type":"大使館","icon":"🇻🇨","country":"セントビンセント及びグレナディーン諸島","name":"セントビンセント及びグレナディーン諸島大使館（兼轄、台湾常駐）","address":"6F, No. 9-1, Lane 62, Tianmu W. Rd., Taipei City 11157, Taiwan, Republic of China (Taiwan) "},"geometry":{"type":"Point","coordinates":[121.52437,25.11721]}},{"type":"Feature","properties":{"id":178,"type":"領事館","icon":"🇻🇨","country":"セントビンセント及びグレナディーン諸島","name":"在東京セントビンセント及びグレナディーン諸島名誉領事館","address":"東京都世田谷区野沢1-35-7-506"},"geometry":{"type":"Point","coordinates":[139.67238,35.63827]}},{"type":"Feature","properties":{"id":179,"type":"大使館","icon":"🇨🇱","country":"チリ共和国","name":"チリ共和国大使館","address":"東京都港区芝3丁目1-14 芝公園阪神ビル7階・8階"},"geometry":{"type":"Point","coordinates":[139.74561,35.6542]}},{"type":"Feature","properties":{"id":180,"type":"領事館","icon":"🇨🇱","country":"チリ共和国","name":"在東京チリ共和国総領事館","address":"東京都港区芝3丁目1-14 芝公園阪神ビル8階"},"geometry":{"type":"Point","coordinates":[139.74561,35.6542]}},{"type":"Feature","properties":{"id":181,"type":"領事館","icon":"🇨🇱","country":"チリ共和国","name":"在大阪チリ共和国名誉領事館","address":"大阪府大阪市中央区東心斎橋2-1-1"},"geometry":{"type":"Point","coordinates":[135.5061,34.67178]}},{"type":"Feature","properties":{"id":182,"type":"領事館","icon":"🇨🇱","country":"チリ共和国","name":"在長崎チリ共和国名誉領事館","address":"長崎県西海市大島町1605-1"},"geometry":{"type":"Point","coordinates":[129.60822,33.04439]}},{"type":"Feature","properties":{"id":183,"type":"大使館","icon":"🇩🇲","country":"ドミニカ国","name":"ドミニカ国大使館（兼轄、本国常駐）","address":"c/o Ministry of Foreign Affairs,  4th Floor, Financial Center, Kennedy Avenue, Roseau, Commonwealth of Dominica"},"geometry":{"type":"Point","coordinates":[-61.38605,15.30082]}},{"type":"Feature","properties":{"id":184,"type":"大使館","icon":"🇩🇴","country":"ドミニカ共和国","name":"ドミニカ共和国大使館","address":"東京都千代田区五番町10 五番町KUビル2階a室"},"geometry":{"type":"Point","coordinates":[139.73461,35.68957]}},{"type":"Feature","properties":{"id":185,"type":"領事館","icon":"🇩🇴","country":"ドミニカ共和国","name":"在東京ドミニカ共和国総領事館","address":"東京都港区麻布十番1-10-3 モンテプラザ麻布904"},"geometry":{"type":"Point","coordinates":[139.73637,35.65624]}},{"type":"Feature","properties":{"id":186,"type":"大使館","icon":"🇹🇹","country":"トリニダード・トバゴ","name":"トリニダード・トバゴ大使館（兼轄、インド常駐）","address":"B-3/26 Vasant Vihar, New Delhi, 110057, India"},"geometry":{"type":"Point","coordinates":[77.16278,28.56814]}},{"type":"Feature","properties":{"id":187,"type":"大使館","icon":"🇳🇮","country":"ニカラグア共和国","name":"ニカラグア共和国大使館","address":"東京都新宿区山吹町337 都住創山吹町ビル5階501号室"},"geometry":{"type":"Point","coordinates":[139.72813,35.70756]}},{"type":"Feature","properties":{"id":188,"type":"領事館","icon":"🇳🇮","country":"ニカラグア共和国","name":"在東京ニカラグア共和国総領事館","address":"東京都新宿区山吹町337 都住創山吹町ビル5階501号室"},"geometry":{"type":"Point","coordinates":[139.72813,35.70756]}},{"type":"Feature","properties":{"id":189,"type":"領事館","icon":"🇳🇮","country":"ニカラグア共和国","name":"在那覇ニカラグア共和国名誉領事館","address":"沖縄県那覇市字宇栄原727"},"geometry":{"type":"Point","coordinates":[127.66948,26.18326]}},{"type":"Feature","properties":{"id":190,"type":"大使館","icon":"🇭🇹","country":"ハイチ共和国","name":"ハイチ共和国大使館","address":"東京都港区東麻布1丁目10-11 東麻布アベビル7階"},"geometry":{"type":"Point","coordinates":[139.74473,35.65676]}},{"type":"Feature","properties":{"id":191,"type":"大使館","icon":"🇵🇦","country":"パナマ共和国","name":"パナマ共和国大使館","address":"東京都港区六本木3-15-5 六本木アシャラヒルズ・ビル2階"},"geometry":{"type":"Point","coordinates":[139.73589,35.66299]}},{"type":"Feature","properties":{"id":192,"type":"領事館","icon":"🇵🇦","country":"パナマ共和国","name":"在東京パナマ共和国総領事館","address":"東京都港区六本木3-15-5 六本木アシャラヒルズ・ビル2階"},"geometry":{"type":"Point","coordinates":[139.73589,35.66299]}},{"type":"Feature","properties":{"id":193,"type":"領事館","icon":"🇵🇦","country":"パナマ共和国","name":"在神戸パナマ共和国総領事館","address":"兵庫県神戸市中央区京町71 山本ビル7階"},"geometry":{"type":"Point","coordinates":[135.19331,34.68969]}},{"type":"Feature","properties":{"id":194,"type":"大使館","icon":"🇧🇸","country":"バハマ国","name":"バハマ国大使館（兼轄、本国常駐）","address":"c/o Ministry of Foreign Affairs, Headquarters,Goodman’s Bay Corporate Centre, Cable Beach, West Bay Street, Nassau, N. P. Commonwealth of The Bahamas. (P. O. Box N-3746)"},"geometry":{"type":"Point","coordinates":[-77.38165,25.07266]}},{"type":"Feature","properties":{"id":195,"type":"大使館","icon":"🇵🇾","country":"パラグアイ共和国","name":"パラグアイ共和国大使館","address":"東京都千代田区一番町2-2 一番町第二TGビル7階"},"geometry":{"type":"Point","coordinates":[139.74458,35.68856]}},{"type":"Feature","properties":{"id":196,"type":"領事館","icon":"🇵🇾","country":"パラグアイ共和国","name":"在函館パラグアイ共和国名誉領事館","address":"函館市東山町185-1"},"geometry":{"type":"Point","coordinates":[140.82068,41.82917]}},{"type":"Feature","properties":{"id":197,"type":"大使館","icon":"🇧🇧","country":"バルバドス","name":"バルバドス大使館（兼轄、中国常駐）","address":"Villa 09-02, Block A, Liang Ma Qiao Diplomatic Office Compound No.22 Dong Fang Dong Lu, Chaoyang District, Beijing, 100600, China"},"geometry":{"type":"Point","coordinates":[116.46553,39.9511]}},{"type":"Feature","properties":{"id":198,"type":"大使館","icon":"🇧🇷","country":"ブラジル連邦共和国","name":"ブラジル連邦共和国大使館","address":"東京都港区北青山2丁目11-12"},"geometry":{"type":"Point","coordinates":[139.71459,35.67087]}},{"type":"Feature","properties":{"id":199,"type":"領事館","icon":"🇧🇷","country":"ブラジル連邦共和国","name":"在東京ブラジル連邦共和国総領事館","address":"東京都品川区東五反田1丁目13-12 いちご五反田ビル2階・3階"},"geometry":{"type":"Point","coordinates":[139.72457,35.62675]}},{"type":"Feature","properties":{"id":200,"type":"領事館","icon":"🇧🇷","country":"ブラジル連邦共和国","name":"在浜松ブラジル連邦共和国総領事館","address":"静岡県浜松市中央区元城町115-10 元城町共同ビル1階・5階"},"geometry":{"type":"Point","coordinates":[137.72778,34.7107]}},{"type":"Feature","properties":{"id":201,"type":"領事館","icon":"🇧🇷","country":"ブラジル連邦共和国","name":"在名古屋ブラジル連邦共和国総領事館","address":"名古屋市中区丸の内1丁目10-29 白川第8ビル2階・6階"},"geometry":{"type":"Point","coordinates":[136.8947,35.17445]}},{"type":"Feature","properties":{"id":202,"type":"領事館","icon":"🇧🇷","country":"ブラジル連邦共和国","name":"在仙台ブラジル連邦共和国名誉領事館","address":"仙台市泉区南光台南1-1-3 シンセービル1階"},"geometry":{"type":"Point","coordinates":[140.8983,38.29818]}},{"type":"Feature","properties":{"id":203,"type":"領事館","icon":"🇧🇷","country":"ブラジル連邦共和国","name":"在神戸ブラジル連邦共和国名誉領事館","address":"神戸市中央区山本通3-19-8 神戸市立海外移住と文化の交流センター3階"},"geometry":{"type":"Point","coordinates":[135.18463,34.69725]}},{"type":"Feature","properties":{"id":204,"type":"領事館","icon":"🇧🇷","country":"ブラジル連邦共和国","name":"在広島ブラジル連邦共和国名誉領事館","address":"広島県広島市南区大洲1丁目5-24"},"geometry":{"type":"Point","coordinates":[132.4893,34.38749]}},{"type":"Feature","properties":{"id":205,"type":"領事館","icon":"🇧🇷","country":"ブラジル連邦共和国","name":"在那覇ブラジル連邦共和国名誉領事館","address":"沖縄県那覇市樋川1-4-52"},"geometry":{"type":"Point","coordinates":[127.68726,26.21063]}},{"type":"Feature","properties":{"id":206,"type":"大使館","icon":"🇻🇪","country":"ベネズエラ・ボリバル共和国","name":"ベネズエラ・ボリバル共和国大使館","address":"東京都中央区入船2-7-4 政光ビル3階"},"geometry":{"type":"Point","coordinates":[139.77806,35.67195]}},{"type":"Feature","properties":{"id":207,"type":"大使館","icon":"🇧🇿","country":"ベリーズ","name":"ベリーズ大使館（兼轄、台湾常駐）","address":"11F, No. 9 Lane 62, Tien Mou West Road, Shih Lin,  Taipei111, Taiwan, Republic of China (Taiwan)"},"geometry":{"type":"Point","coordinates":[120.58669,24.18601]}},{"type":"Feature","properties":{"id":208,"type":"大使館","icon":"🇵🇪","country":"ペルー共和国","name":"ペルー共和国大使館","address":"東京都渋谷区広尾2-3-1"},"geometry":{"type":"Point","coordinates":[139.71408,35.6524]}},{"type":"Feature","properties":{"id":209,"type":"大使館","icon":"🇵🇪","country":"ペルー共和国","name":"ペルー共和国大使館（商務部）","address":"東京都新宿区西早稲田3-30-16 HORIZON.1ビル8階"},"geometry":{"type":"Point","coordinates":[139.71133,35.71379]}},{"type":"Feature","properties":{"id":210,"type":"領事館","icon":"🇵🇪","country":"ペルー共和国","name":"在東京ペルー共和国総領事館","address":"東京都品川区東五反田1丁目13-12 COI五反田ビル6階"},"geometry":{"type":"Point","coordinates":[139.72457,35.62675]}},{"type":"Feature","properties":{"id":211,"type":"領事館","icon":"🇵🇪","country":"ペルー共和国","name":"在名古屋ペルー共和国総領事館","address":"愛知県名古屋市中区栄2-2-23　アーク白川公園ビルディング3階"},"geometry":{"type":"Point","coordinates":[136.89946,35.16734]}},{"type":"Feature","properties":{"id":212,"type":"領事館","icon":"🇵🇪","country":"ペルー共和国","name":"在高山ペルー名誉領事館","address":"岐阜県高山市上岡本町5-189"},"geometry":{"type":"Point","coordinates":[137.23673,36.13758]}},{"type":"Feature","properties":{"id":213,"type":"領事館","icon":"🇵🇪","country":"ペルー共和国","name":"在京都ペルー共和国名誉領事館","address":"京都市上京区小川通寺之内上ル本法寺前町613"},"geometry":{"type":"Point","coordinates":[135.75377,35.0345]}},{"type":"Feature","properties":{"id":214,"type":"領事館","icon":"🇵🇪","country":"ペルー共和国","name":"在那覇ペルー共和国名誉領事館","address":"沖縄県那覇市旭町112-1 金秀ビル（東館）8階、9階"},"geometry":{"type":"Point","coordinates":[127.67823,26.20929]}},{"type":"Feature","properties":{"id":215,"type":"大使館","icon":"🇧🇴","country":"ボリビア多民族国","name":"ボリビア多民族国大使館","address":" 東京都港区芝公園3-4-30 32芝公園ビル802・804号室"},"geometry":{"type":"Point","coordinates":[139.74639,35.65891]}},{"type":"Feature","properties":{"id":216,"type":"大使館","icon":"🇭🇳","country":"ホンジュラス共和国","name":"ホンジュラス共和国大使館","address":"東京都港区東麻布1-10-11 東麻布アベビル5階"},"geometry":{"type":"Point","coordinates":[139.74473,35.65676]}},{"type":"Feature","properties":{"id":217,"type":"大使館","icon":"🇲🇽","country":"メキシコ合衆国","name":"メキシコ合衆国大使館","address":"東京都千代田区永田町2丁目15-1"},"geometry":{"type":"Point","coordinates":[139.73929,35.67699]}},{"type":"Feature","properties":{"id":218,"type":"領事館","icon":"🇲🇽","country":"メキシコ合衆国","name":"在名古屋メキシコ合衆国名誉領事館","address":"愛知県豊田市トヨタ町1番地"},"geometry":{"type":"Point","coordinates":[137.16057,35.05166]}},{"type":"Feature","properties":{"id":219,"type":"領事館","icon":"🇲🇽","country":"メキシコ合衆国","name":"在大阪メキシコ合衆国名誉領事館","address":"大阪市北区大淀中1-1-88 梅田スカイビル・タワーイースト23階"},"geometry":{"type":"Point","coordinates":[135.49103,34.70492]}},{"type":"Feature","properties":{"id":220,"type":"領事館","icon":"🇲🇽","country":"メキシコ合衆国","name":"在広島メキシコ合衆国名誉領事館","address":"広島県安芸郡府中町新地3-1"},"geometry":{"type":"Point","coordinates":[132.50058,34.38266]}},{"type":"Feature","properties":{"id":221,"type":"大使館","icon":"🇮🇸","country":"アイスランド","name":"アイスランド大使館","address":"東京都港区高輪4-18-26"},"geometry":{"type":"Point","coordinates":[139.73378,35.62642]}},{"type":"Feature","properties":{"id":222,"type":"領事館","icon":"🇮🇸","country":"アイスランド","name":"在京都アイスランド名誉総領事館","address":"京都市中京区堂之前町248 池坊9階"},"geometry":{"type":"Point","coordinates":[135.76033,35.00769]}},{"type":"Feature","properties":{"id":223,"type":"大使館","icon":"🇮🇸","country":"アイルランド","name":"アイルランド大使館","address":" 東京都新宿区四谷本塩町1-6"},"geometry":{"type":"Point","coordinates":[139.72837,35.6884]}},{"type":"Feature","properties":{"id":224,"type":"領事館","icon":"🇮🇸","country":"アイルランド","name":"在札幌アイルランド名誉領事館","address":"札幌市中央区北1条西7丁目4"},"geometry":{"type":"Point","coordinates":[141.34576,43.06099]}},{"type":"Feature","properties":{"id":225,"type":"大使館","icon":"🇦🇿","country":"アゼルバイジャン共和国","name":"アゼルバイジャン共和国大使館","address":"東京都目黒区東が丘1丁目19-15"},"geometry":{"type":"Point","coordinates":[139.66849,35.62614]}},{"type":"Feature","properties":{"id":226,"type":"大使館","icon":"🇦🇱","country":"アルバニア共和国","name":"アルバニア共和国大使館","address":"東京都中央区築地6丁目4-8 北國新聞ビル4階"},"geometry":{"type":"Point","coordinates":[139.77258,35.66494]}},{"type":"Feature","properties":{"id":227,"type":"領事館","icon":"🇦🇱","country":"アルバニア共和国","name":"在千葉アルバニア共和国名誉領事館","address":"千葉県千葉市若葉区千城台東3-3-10"},"geometry":{"type":"Point","coordinates":[140.19266,35.61625]}},{"type":"Feature","properties":{"id":228,"type":"領事館","icon":"🇦🇱","country":"アルバニア共和国","name":"在福岡アルバニア共和国名誉領事館","address":"福岡県福岡市東区和白東3-30-1"},"geometry":{"type":"Point","coordinates":[130.44174,33.69614]}},{"type":"Feature","properties":{"id":229,"type":"大使館","icon":"🇦🇲","country":"アルメニア共和国","name":"アルメニア共和国大使館","address":"東京都港区赤坂1丁目11-36"},"geometry":{"type":"Point","coordinates":[139.74173,35.66872]}},{"type":"Feature","properties":{"id":230,"type":"大使館","icon":"🇮🇹","country":"イタリア","name":"イタリア大使館","address":"東京都港区三田2丁目5-4"},"geometry":{"type":"Point","coordinates":[139.74247,35.65072]}},{"type":"Feature","properties":{"id":231,"type":"大使館","icon":"🇮🇹","country":"イタリア","name":"イタリア大使館（貿易促進部）","address":"東京都港区南青山1丁目1-1 新青山ビル西館16階"},"geometry":{"type":"Point","coordinates":[139.72473,35.67258]}},{"type":"Feature","properties":{"id":232,"type":"領事館","icon":"🇮🇹","country":"イタリア","name":"在大阪イタリア総領事館","address":"大阪市北区中之島2-3-18 中之島フェスティバルタワー17階"},"geometry":{"type":"Point","coordinates":[135.49687,34.69363]}},{"type":"Feature","properties":{"id":233,"type":"大使館","icon":"🇺🇦","country":"ウクライナ","name":"ウクライナ大使館","address":"東京都港区西麻布3-5-31"},"geometry":{"type":"Point","coordinates":[139.72522,35.65717]}},{"type":"Feature","properties":{"id":234,"type":"領事館","icon":"🇺🇦","country":"ウクライナ","name":"在神戸ウクライナ名誉領事館","address":"神戸市中央区港島1-3-11 神戸学院大学ポートアイランド第2キャンパス1号館4階"},"geometry":{"type":"Point","coordinates":[135.20398,34.66626]}},{"type":"Feature","properties":{"id":235,"type":"大使館","icon":"🇺🇿","country":"ウズベキスタン共和国","name":"ウズベキスタン共和国大使館","address":"東京都港区高輪2-1-52"},"geometry":{"type":"Point","coordinates":[139.73707,35.63962]}},{"type":"Feature","properties":{"id":236,"type":"領事館","icon":"🇺🇿","country":"ウズベキスタン共和国","name":"在名古屋ウズベキスタン共和国名誉領事館","address":"名古屋市中区大須1-7-14 パークIMビル2階"},"geometry":{"type":"Point","coordinates":[136.89777,35.16189]}},{"type":"Feature","properties":{"id":237,"type":"領事館","icon":"🇺🇿","country":"ウズベキスタン共和国","name":"在広島ウズベキスタン共和国名誉領事館","address":"広島市中区立町1-26 泰平ビル2階"},"geometry":{"type":"Point","coordinates":[132.46202,34.39401]}},{"type":"Feature","properties":{"id":238,"type":"大使館","icon":"🇬🇧","country":"英国","name":"英国大使館","address":"東京都千代田区一番町1"},"geometry":{"type":"Point","coordinates":[139.74431,35.68687]}},{"type":"Feature","properties":{"id":239,"type":"領事館","icon":"🇬🇧","country":"英国","name":"在大阪英国総領事館","address":"大阪市中央区博労町3丁目5-1 御堂筋グランタワー19階"},"geometry":{"type":"Point","coordinates":[135.50142,34.67873]}},{"type":"Feature","properties":{"id":240,"type":"領事館","icon":"🇬🇧","country":"英国","name":"在北九州英国名誉領事館","address":"福岡県北九州市小倉北区馬借1-7-17 J-フィールド3階"},"geometry":{"type":"Point","coordinates":[130.87885,33.88002]}},{"type":"Feature","properties":{"id":241,"type":"大使館","icon":"🇪🇪","country":"エストニア共和国","name":"エストニア共和国大使館","address":"東京都渋谷区神宮前2-6-15"},"geometry":{"type":"Point","coordinates":[139.71169,35.67303]}},{"type":"Feature","properties":{"id":242,"type":"領事館","icon":"🇪🇪","country":"エストニア共和国","name":"在大阪エストニア共和国名誉総領事館","address":"大阪市中央区本町3-4-12"},"geometry":{"type":"Point","coordinates":[135.50168,34.6837]}},{"type":"Feature","properties":{"id":243,"type":"大使館","icon":"🇦🇹","country":"オーストリア共和国","name":"オーストリア共和国大使館","address":"東京都港区元麻布1丁目1-20"},"geometry":{"type":"Point","coordinates":[139.73277,35.65587]}},{"type":"Feature","properties":{"id":244,"type":"大使館","icon":"🇦🇹","country":"オーストリア共和国","name":"オーストリア共和国大使館（商務部）","address":"東京都港区元麻布3-13-3"},"geometry":{"type":"Point","coordinates":[139.7319,35.65588]}},{"type":"Feature","properties":{"id":245,"type":"大使館","icon":"🇦🇹","country":"オーストリア共和国","name":"オーストリア共和国大使館（観光部）","address":"東京都港区元麻布3-12-3 OHEビル2階"},"geometry":{"type":"Point","coordinates":[139.73247,35.65643]}},{"type":"Feature","properties":{"id":246,"type":"領事館","icon":"🇦🇹","country":"オーストリア共和国","name":"在名古屋オーストリア共和国名誉領事館","address":"名古屋市中村区名駅4-7-1 ミッドランドスクエア16階"},"geometry":{"type":"Point","coordinates":[136.88564,35.17077]}},{"type":"Feature","properties":{"id":247,"type":"領事館","icon":"🇦🇹","country":"オーストリア共和国","name":"在大阪オーストリア共和国名誉総領事館","address":"大阪市北区梅田3-3-5"},"geometry":{"type":"Point","coordinates":[135.49289,34.69919]}},{"type":"Feature","properties":{"id":248,"type":"領事館","icon":"🇦🇹","country":"オーストリア共和国","name":"在広島オーストリア共和国名誉領事館","address":"広島市中区白島北町19-2"},"geometry":{"type":"Point","coordinates":[132.46281,34.41297]}},{"type":"Feature","properties":{"id":249,"type":"大使館","icon":"🇳🇱","country":"オランダ王国","name":"オランダ王国大使館","address":"東京都港区芝公園3丁目6-3"},"geometry":{"type":"Point","coordinates":[139.74587,35.66176]}},{"type":"Feature","properties":{"id":250,"type":"領事館","icon":"🇳🇱","country":"オランダ王国","name":"在大阪オランダ王国総領事館","address":"大阪市中央区北浜1丁目1番14号 北浜1丁目平和ビル8階B室"},"geometry":{"type":"Point","coordinates":[135.50862,34.69124]}},{"type":"Feature","properties":{"id":251,"type":"領事館","icon":"🇳🇱","country":"オランダ王国","name":"在名古屋オランダ王国名誉領事館","address":"名古屋市中区栄2丁目4-18"},"geometry":{"type":"Point","coordinates":[136.90219,35.16767]}},{"type":"Feature","properties":{"id":252,"type":"領事館","icon":"🇳🇱","country":"オランダ王国","name":"在長崎オランダ王国名誉領事館","address":"長崎市新地町3-17"},"geometry":{"type":"Point","coordinates":[129.87415,32.74176]}},{"type":"Feature","properties":{"id":253,"type":"大使館","icon":"🇰🇿","country":"カザフスタン共和国","name":"カザフスタン共和国大使館","address":"東京都港区麻布台1-8-14"},"geometry":{"type":"Point","coordinates":[139.74155,35.66011]}},{"type":"Feature","properties":{"id":254,"type":"大使館","icon":"🇨🇾","country":"キプロス共和国","name":"キプロス共和国大使館","address":"東京都港区南麻布4-6-28 ヨーロッパハウス4階"},"geometry":{"type":"Point","coordinates":[139.72707,35.64987]}},{"type":"Feature","properties":{"id":255,"type":"大使館","icon":"🇲🇰","country":"北マケドニア共和国","name":"北マケドニア共和国大使館","address":"東京都品川区東五反田5丁目16-17 パティオ池田山イースト"},"geometry":{"type":"Point","coordinates":[139.72247,35.62889]}},{"type":"Feature","properties":{"id":256,"type":"大使館","icon":"🇬🇷","country":"ギリシャ","name":"ギリシャ大使館","address":"東京都港区西麻布3丁目16-30"},"geometry":{"type":"Point","coordinates":[139.72605,35.65837]}},{"type":"Feature","properties":{"id":257,"type":"領事館","icon":"🇬🇷","country":"ギリシャ","name":"在芦屋ギリシャ名誉総領事館","address":"兵庫県芦屋市南宮町1-3 第一興業ビル3階"},"geometry":{"type":"Point","coordinates":[135.31746,34.73084]}},{"type":"Feature","properties":{"id":258,"type":"大使館","icon":"🇰🇬","country":"キルギス共和国","name":"キルギス共和国大使館","address":"東京都港区三田1-5-7"},"geometry":{"type":"Point","coordinates":[139.74021,35.65343]}},{"type":"Feature","properties":{"id":259,"type":"領事館","icon":"🇰🇬","country":"キルギス共和国","name":"在焼津キルギス共和国名誉領事館","address":"焼津市栄町1-4-10 812STUDIOビル2F"},"geometry":{"type":"Point","coordinates":[138.31836,34.87059]}},{"type":"Feature","properties":{"id":260,"type":"大使館","icon":"🇭🇷","country":"クロアチア共和国","name":"クロアチア共和国大使館","address":"東京都渋谷区広尾3丁目3-10"},"geometry":{"type":"Point","coordinates":[139.71509,35.6552]}},{"type":"Feature","properties":{"id":261,"type":"領事館","icon":"🇭🇷","country":"クロアチア共和国","name":"在大阪クロアチア共和国名誉領事館","address":"大阪市西区江戸堀1-8-2 5階"},"geometry":{"type":"Point","coordinates":[135.49733,34.68934]}},{"type":"Feature","properties":{"id":262,"type":"領事館","icon":"🇭🇷","country":"クロアチア共和国","name":"在那覇クロアチア共和国名誉領事館","address":"沖縄県那覇市牧志3-9-10"},"geometry":{"type":"Point","coordinates":[127.69015,26.21641]}},{"type":"Feature","properties":{"id":263,"type":"大使館","icon":"🇽🇰","country":"コソボ共和国","name":"コソボ共和国大使館","address":"東京都港区西新橋3-13-7 VORT虎ノ門サウスビル10階"},"geometry":{"type":"Point","coordinates":[139.75083,35.66448]}},{"type":"Feature","properties":{"id":264,"type":"領事館","icon":"🇽🇰","country":"コソボ共和国","name":"在山梨コソボ共和国名誉領事館","address":"山梨県甲府市酒折2-4-5"},"geometry":{"type":"Point","coordinates":[138.60091,35.65788]}},{"type":"Feature","properties":{"id":265,"type":"大使館","icon":"🇸🇲","country":"サンマリノ共和国","name":"サンマリノ共和国大使館","address":"東京都港区元麻布3-5-1"},"geometry":{"type":"Point","coordinates":[139.72833,35.65687]}},{"type":"Feature","properties":{"id":266,"type":"領事館","icon":"🇸🇲","country":"サンマリノ共和国","name":"在神戸サンマリノ共和国名誉領事館","address":"兵庫県神戸市中央区港島中町6-13-1"},"geometry":{"type":"Point","coordinates":[135.211,34.6656]}},{"type":"Feature","properties":{"id":267,"type":"大使館","icon":"🇬🇪","country":"ジョージア","name":"ジョージア大使館","address":"東京都港区北青山2-10-22 K2ビル"},"geometry":{"type":"Point","coordinates":[139.71542,35.67162]}},{"type":"Feature","properties":{"id":268,"type":"領事館","icon":"🇬🇪","country":"ジョージア","name":"在鹿児島ジョージア名誉領事館","address":"鹿児島県鹿屋市輝北町上百引3847-2"},"geometry":{"type":"Point","coordinates":[130.85158,31.55057]}},{"type":"Feature","properties":{"id":269,"type":"大使館","icon":"🇨🇭","country":"スイス","name":"スイス大使館","address":"東京都港区南麻布5丁目9-12"},"geometry":{"type":"Point","coordinates":[139.72381,35.65335]}},{"type":"Feature","properties":{"id":270,"type":"領事館","icon":"🇨🇭","country":"スイス","name":"在大阪スイス領事館","address":"大阪府大阪市北区堂島1丁目1番5号 梅田新道ビル1階"},"geometry":{"type":"Point","coordinates":[135.50052,34.69585]}},{"type":"Feature","properties":{"id":271,"type":"領事館","icon":"🇨🇭","country":"スイス","name":"在東川（北海道）スイス名誉領事館","address":"北海道上川郡東川町勇駒別"},"geometry":{"type":"Point","coordinates":[142.81198,43.67063]}},{"type":"Feature","properties":{"id":272,"type":"領事館","icon":"🇨🇭","country":"スイス","name":"在福岡スイス名誉領事館","address":"福岡市早良区室見5-7-5"},"geometry":{"type":"Point","coordinates":[130.33937,33.57912]}},{"type":"Feature","properties":{"id":273,"type":"大使館","icon":"🇸🇪","country":"スウェーデン王国","name":"スウェーデン王国大使館","address":"東京都港区赤坂1-12-32 アーク森ビル16階"},"geometry":{"type":"Point","coordinates":[139.74008,35.66716]}},{"type":"Feature","properties":{"id":274,"type":"領事館","icon":"🇸🇪","country":"スウェーデン王国","name":"在札幌スウェーデン王国名誉領事館","address":"札幌市北区北7条西1丁目2-6 NCO札幌14階"},"geometry":{"type":"Point","coordinates":[141.35382,43.06987]}},{"type":"Feature","properties":{"id":275,"type":"領事館","icon":"🇸🇪","country":"スウェーデン王国","name":"在神戸スウェーデン王国名誉領事館","address":"神戸市中央区栄町通4-2-18"},"geometry":{"type":"Point","coordinates":[135.18407,34.68582]}},{"type":"Feature","properties":{"id":276,"type":"領事館","icon":"🇸🇪","country":"スウェーデン王国","name":"在福岡スウェーデン王国名誉領事館","address":"福岡県古賀市青柳3108-3"},"geometry":{"type":"Point","coordinates":[130.46974,33.71312]}},{"type":"Feature","properties":{"id":277,"type":"大使館","icon":"🇪🇸","country":"スペイン王国","name":"スペイン王国大使館","address":"東京都港区六本木1丁目3-29"},"geometry":{"type":"Point","coordinates":[139.74152,35.66558]}},{"type":"Feature","properties":{"id":278,"type":"大使館","icon":"🇪🇸","country":"スペイン王国","name":"スペイン王国大使館（観光部）","address":"東京都港区虎ノ門3-1-10 第2虎の門電気ビルディング6階"},"geometry":{"type":"Point","coordinates":[139.74581,35.66695]}},{"type":"Feature","properties":{"id":279,"type":"領事館","icon":"🇪🇸","country":"スペイン王国","name":"在札幌スペイン王国名誉領事館","address":"札幌市中央区南9条西5丁目 パーク9・5ビル"},"geometry":{"type":"Point","coordinates":[141.35225,43.04841]}},{"type":"Feature","properties":{"id":280,"type":"領事館","icon":"🇪🇸","country":"スペイン王国","name":"在大阪スペイン王国名誉領事館","address":"大阪府大阪市北区堂島浜2-1-40"},"geometry":{"type":"Point","coordinates":[135.49556,34.69516]}},{"type":"Feature","properties":{"id":281,"type":"領事館","icon":"🇪🇸","country":"スペイン王国","name":"在高松スペイン王国名誉領事館","address":"香川県高松市浜ノ町8-24"},"geometry":{"type":"Point","coordinates":[134.04172,34.35]}},{"type":"Feature","properties":{"id":282,"type":"領事館","icon":"🇪🇸","country":"スペイン王国","name":"在福岡スペイン王国名誉領事館","address":"福岡県福岡市中央区大名2-9-23 プリオ福岡ビル"},"geometry":{"type":"Point","coordinates":[130.39299,33.59062]}},{"type":"Feature","properties":{"id":283,"type":"大使館","icon":"🇸🇰","country":"スロバキア共和国","name":"スロバキア共和国大使館","address":"東京都港区元麻布2-11-33"},"geometry":{"type":"Point","coordinates":[139.73053,35.65433]}},{"type":"Feature","properties":{"id":284,"type":"領事館","icon":"🇸🇰","country":"スロバキア共和国","name":"在宇都宮スロバキア共和国名誉領事館","address":"栃木県宇都宮市白沢町2012-4"},"geometry":{"type":"Point","coordinates":[139.93523,36.62021]}},{"type":"Feature","properties":{"id":285,"type":"領事館","icon":"🇸🇰","country":"スロバキア共和国","name":"在霧島スロバキア共和国名誉領事館","address":"鹿児島県霧島市溝辺町麓876-15"},"geometry":{"type":"Point","coordinates":[130.71355,31.79724]}},{"type":"Feature","properties":{"id":286,"type":"大使館","icon":"🇸🇮","country":"スロベニア共和国","name":"スロベニア共和国大使館","address":"東京都港区南青山7-14-12"},"geometry":{"type":"Point","coordinates":[139.71733,35.65672]}},{"type":"Feature","properties":{"id":287,"type":"領事館","icon":"🇸🇮","country":"スロベニア共和国","name":"在福井スロベニア共和国名誉領事館","address":"福井市羽水2-402"},"geometry":{"type":"Point","coordinates":[136.22957,36.04053]}},{"type":"Feature","properties":{"id":288,"type":"大使館","icon":"🇷🇸","country":"セルビア共和国","name":"セルビア共和国大使館","address":"東京都港区高輪4丁目16-12"},"geometry":{"type":"Point","coordinates":[139.73308,35.62648]}},{"type":"Feature","properties":{"id":289,"type":"領事館","icon":"🇷🇸","country":"セルビア共和国","name":"在大阪セルビア共和国名誉総領事館","address":"大阪府大阪市西区土佐堀1-4-11"},"geometry":{"type":"Point","coordinates":[135.493,34.68991]}},{"type":"Feature","properties":{"id":290,"type":"大使館","icon":"🇹🇯","country":"タジキスタン共和国","name":"タジキスタン共和国大使館","address":"東京都品川区上大崎1-5-42 上大崎コンパウンド2階・3階"},"geometry":{"type":"Point","coordinates":[139.72376,35.6331]}},{"type":"Feature","properties":{"id":291,"type":"大使館","icon":"🇨🇿","country":"チェコ共和国","name":"チェコ共和国大使館","address":"東京都渋谷区広尾2丁目16-14"},"geometry":{"type":"Point","coordinates":[139.71698,35.65199]}},{"type":"Feature","properties":{"id":292,"type":"領事館","icon":"🇨🇿","country":"チェコ共和国","name":"在札幌チェコ共和国名誉領事館","address":"札幌市中央区北1条東4-8-1 サッポロファクトリーフロンティア館3階"},"geometry":{"type":"Point","coordinates":[141.36241,43.06409]}},{"type":"Feature","properties":{"id":293,"type":"領事館","icon":"🇨🇿","country":"チェコ共和国","name":"在堺チェコ共和国名誉領事館","address":"大阪府堺市北区長曽根町130-23"},"geometry":{"type":"Point","coordinates":[135.50554,34.56009]}},{"type":"Feature","properties":{"id":294,"type":"領事館","icon":"🇨🇿","country":"チェコ共和国","name":"在那覇チェコ共和国名誉領事館","address":"沖縄県那覇市辻1-6-5"},"geometry":{"type":"Point","coordinates":[127.6703,26.21643]}},{"type":"Feature","properties":{"id":295,"type":"大使館","icon":"🇩🇰","country":"デンマーク王国","name":"デンマーク王国大使館","address":"東京都渋谷区猿楽町29-6"},"geometry":{"type":"Point","coordinates":[139.69983,35.64837]}},{"type":"Feature","properties":{"id":296,"type":"領事館","icon":"🇩🇰","country":"デンマーク王国","name":"在札幌デンマーク王国名誉領事館","address":"北海道札幌市中央区大通西2丁目5番地 ほくほく札幌ビル"},"geometry":{"type":"Point","coordinates":[141.35463,43.06018]}},{"type":"Feature","properties":{"id":297,"type":"領事館","icon":"🇩🇰","country":"デンマーク王国","name":"在名古屋デンマーク王国名誉領事館","address":"愛知県刈谷市豊田町1-1"},"geometry":{"type":"Point","coordinates":[136.99966,34.99428]}},{"type":"Feature","properties":{"id":298,"type":"領事館","icon":"🇩🇰","country":"デンマーク王国","name":"在大阪デンマーク王国名誉領事館","address":" 大阪市北区堂島浜2丁目1-40 サントリービル"},"geometry":{"type":"Point","coordinates":[135.49556,34.69516]}},{"type":"Feature","properties":{"id":299,"type":"領事館","icon":"🇩🇰","country":"デンマーク王国","name":"在広島デンマーク王国名誉領事館","address":"広島県広島市中区本通7-1"},"geometry":{"type":"Point","coordinates":[132.45856,34.39312]}},{"type":"Feature","properties":{"id":300,"type":"領事館","icon":"🇩🇰","country":"デンマーク王国","name":"在福岡デンマーク王国名誉領事館","address":"福岡市早良区百道浜2丁目4-27 AIビルディング11階"},"geometry":{"type":"Point","coordinates":[130.35416,33.59325]}},{"type":"Feature","properties":{"id":301,"type":"大使館","icon":"🇩🇪","country":"ドイツ連邦共和国","name":"ドイツ連邦共和国大使館","address":"東京都港区南麻布4丁目5-10"},"geometry":{"type":"Point","coordinates":[139.72523,35.65082]}},{"type":"Feature","properties":{"id":302,"type":"領事館","icon":"🇩🇪","country":"ドイツ連邦共和国","name":"在大阪・神戸ドイツ連邦共和国総領事館","address":"大阪市北区大淀中1丁目1-88 梅田スカイビル東楝35階"},"geometry":{"type":"Point","coordinates":[135.49103,34.70492]}},{"type":"Feature","properties":{"id":303,"type":"領事館","icon":"🇩🇪","country":"ドイツ連邦共和国","name":"在札幌ドイツ連邦共和国名誉領事館","address":"札幌市中央区北1条東4-8-1 サッポロファクトリーフロンティア館3階"},"geometry":{"type":"Point","coordinates":[141.36241,43.06409]}},{"type":"Feature","properties":{"id":304,"type":"領事館","icon":"🇩🇪","country":"ドイツ連邦共和国","name":"在豊橋ドイツ連邦共和国名誉領事館","address":"愛知県豊橋市駅前大通1ｰ55 サーラタワー"},"geometry":{"type":"Point","coordinates":[137.38386,34.76275]}},{"type":"Feature","properties":{"id":305,"type":"領事館","icon":"🇩🇪","country":"ドイツ連邦共和国","name":"在福岡ドイツ連邦共和国名誉領事館","address":"福岡市博多区千代1-17-1"},"geometry":{"type":"Point","coordinates":[130.41447,33.60196]}},{"type":"Feature","properties":{"id":306,"type":"領事館","icon":"🇩🇪","country":"ドイツ連邦共和国","name":"在西原（沖縄）ドイツ連邦共和国名誉領事館","address":"沖縄県中頭郡西原町字幸地586番地の15"},"geometry":{"type":"Point","coordinates":[127.73999,26.23699]}},{"type":"Feature","properties":{"id":307,"type":"大使館","icon":"🇹🇲","country":"トルクメニスタン","name":"トルクメニスタン大使館","address":"東京都渋谷区東2丁目6-14"},"geometry":{"type":"Point","coordinates":[139.71021,35.65379]}},{"type":"Feature","properties":{"id":308,"type":"大使館","icon":"🇳🇴","country":"ノルウェー王国","name":"ノルウェー王国大使館","address":"東京都港区芝公園3-4-30 32芝公園ビル9階"},"geometry":{"type":"Point","coordinates":[139.74639,35.65891]}},{"type":"Feature","properties":{"id":309,"type":"大使館","icon":"🇳🇴","country":"ノルウェー王国","name":"ノルウェー王国大使館（通商技術部・水産部）","address":"東京都港区虎ノ門4-3-1  WeWork城山トラストタワー 20階106号室"},"geometry":{"type":"Point","coordinates":[139.7432,35.66478]}},{"type":"Feature","properties":{"id":310,"type":"領事館","icon":"🇳🇴","country":"ノルウェー王国","name":"在札幌ノルウェー王国名誉領事館","address":"札幌市中央区北12条西20丁目2-1"},"geometry":{"type":"Point","coordinates":[141.3208,43.0732]}},{"type":"Feature","properties":{"id":311,"type":"領事館","icon":"🇳🇴","country":"ノルウェー王国","name":"在神戸ノルウェー王国名誉総領事館","address":"兵庫県神戸市中央区御幸通7-1-15 三宮ビルディング南館11F"},"geometry":{"type":"Point","coordinates":[135.19632,34.69262]}},{"type":"Feature","properties":{"id":312,"type":"領事館","icon":"🇳🇴","country":"ノルウェー王国","name":"在福岡ノルウェー王国名誉領事館","address":"福岡県古賀市青柳3108-3"},"geometry":{"type":"Point","coordinates":[130.46974,33.71312]}},{"type":"Feature","properties":{"id":313,"type":"大使館","icon":"🇻🇦","country":"ローマ法王庁","name":"ローマ法王庁大使館","address":"東京都千代田区四番町7-3"},"geometry":{"type":"Point","coordinates":[139.73745,35.68785]}},{"type":"Feature","properties":{"id":314,"type":"大使館","icon":"🇭🇺","country":"ハンガリー","name":"ハンガリー大使館","address":"東京都港区三田2-17-14"},"geometry":{"type":"Point","coordinates":[139.74114,35.64846]}},{"type":"Feature","properties":{"id":315,"type":"大使館","icon":"🇭🇺","country":"ハンガリー","name":"ハンガリー大使館（文化部（リスト・ハンガリー文化センター））","address":"東京都港区麻布十番3-8-1"},"geometry":{"type":"Point","coordinates":[139.73441,35.65362]}},{"type":"Feature","properties":{"id":316,"type":"領事館","icon":"🇭🇺","country":"ハンガリー","name":"在大阪ハンガリー領事館","address":"大阪府大阪市北区堂島浜1-1-27 大阪堂島浜タワ-14階1408-1409"},"geometry":{"type":"Point","coordinates":[135.50099,34.69564]}},{"type":"Feature","properties":{"id":317,"type":"領事館","icon":"🇭🇺","country":"ハンガリー","name":"在横浜ハンガリー名誉領事館","address":"神奈川県横浜市旭区上白根町762-4"},"geometry":{"type":"Point","coordinates":[139.53743,35.49791]}},{"type":"Feature","properties":{"id":318,"type":"領事館","icon":"🇭🇺","country":"ハンガリー","name":"在名古屋ハンガリー名誉領事館","address":"愛知県名古屋市中村区名駅4-5-27 第一名駅ビル1階"},"geometry":{"type":"Point","coordinates":[136.88635,35.17145]}},{"type":"Feature","properties":{"id":319,"type":"大使館","icon":"🇫🇮","country":"フィンランド","name":"フィンランド大使館","address":"東京都港区南麻布3丁目5-39"},"geometry":{"type":"Point","coordinates":[139.7286,35.65039]}},{"type":"Feature","properties":{"id":320,"type":"領事館","icon":"🇫🇮","country":"フィンランド","name":"在札幌フィンランド名誉領事館","address":"札幌市手稲区前田9条11丁目7番40号"},"geometry":{"type":"Point","coordinates":[141.26106,43.13149]}},{"type":"Feature","properties":{"id":321,"type":"領事館","icon":"🇫🇮","country":"フィンランド","name":"在名古屋フィンランド名誉領事館","address":"名古屋市中村区名駅1丁目1-4 JRセントラルタワーズ"},"geometry":{"type":"Point","coordinates":[136.88342,35.17075]}},{"type":"Feature","properties":{"id":322,"type":"大使館","icon":"🇫🇷","country":"フランス","name":"フランス大使館","address":"東京都港区南麻布4丁目11-44"},"geometry":{"type":"Point","coordinates":[139.72649,35.64822]}},{"type":"Feature","properties":{"id":323,"type":"領事館","icon":"🇫🇷","country":"フランス","name":"在京都フランス総領事館","address":"京都府京都市左京区吉田泉殿町8"},"geometry":{"type":"Point","coordinates":[135.77673,35.02742]}},{"type":"Feature","properties":{"id":324,"type":"領事館","icon":"🇫🇷","country":"フランス","name":"在札幌フランス名誉領事館","address":"札幌市中央区南2条西5丁目10-2 南2西5ビル2階"},"geometry":{"type":"Point","coordinates":[141.35043,43.05722]}},{"type":"Feature","properties":{"id":325,"type":"領事館","icon":"🇫🇷","country":"フランス","name":"在仙台フランス名誉領事館","address":"宮城県仙台市宮城野区元寺小路302-14"},"geometry":{"type":"Point","coordinates":[140.88545,38.26396]}},{"type":"Feature","properties":{"id":326,"type":"領事館","icon":"🇫🇷","country":"フランス","name":"在新潟フランス名誉領事館","address":"新潟市中央区古町通2-495"},"geometry":{"type":"Point","coordinates":[139.04102,37.91672]}},{"type":"Feature","properties":{"id":327,"type":"領事館","icon":"🇫🇷","country":"フランス","name":"在名古屋フランス名誉領事館","address":"愛知県名古屋市東区東桜1-1-1"},"geometry":{"type":"Point","coordinates":[136.90889,35.17349]}},{"type":"Feature","properties":{"id":328,"type":"領事館","icon":"🇫🇷","country":"フランス","name":"在広島フランス名誉領事館","address":"広島市中区中町6-30 広テレプラザ6F"},"geometry":{"type":"Point","coordinates":[132.45859,34.39077]}},{"type":"Feature","properties":{"id":329,"type":"領事館","icon":"🇫🇷","country":"フランス","name":"在福岡フランス名誉領事館","address":"福岡市中央区渡辺通2-1-82"},"geometry":{"type":"Point","coordinates":[130.40566,33.58267]}},{"type":"Feature","properties":{"id":330,"type":"領事館","icon":"🇫🇷","country":"フランス","name":"在長崎フランス名誉領事館","address":"長崎市出島3-10"},"geometry":{"type":"Point","coordinates":[129.87236,32.743]}},{"type":"Feature","properties":{"id":331,"type":"領事館","icon":"🇫🇷","country":"フランス","name":"在那覇フランス名誉領事館","address":"沖縄県浦添市仲間3-3-9"},"geometry":{"type":"Point","coordinates":[127.72805,26.24524]}},{"type":"Feature","properties":{"id":332,"type":"大使館","icon":"🇧🇬","country":"ブルガリア共和国","name":"ブルガリア共和国大使館","address":"東京都渋谷区代々木5丁目36-3"},"geometry":{"type":"Point","coordinates":[139.69047,35.67369]}},{"type":"Feature","properties":{"id":333,"type":"領事館","icon":"🇧🇬","country":"ブルガリア共和国","name":"在茨城ブルガリア共和国名誉領事館","address":"茨城県守谷市野木崎3455"},"geometry":{"type":"Point","coordinates":[139.96361,35.93677]}},{"type":"Feature","properties":{"id":334,"type":"領事館","icon":"🇧🇬","country":"ブルガリア共和国","name":"在泉大津ブルガリア共和国名誉領事館","address":"大阪府泉大津市なぎさ町5-1"},"geometry":{"type":"Point","coordinates":[135.39665,34.5078]}},{"type":"Feature","properties":{"id":335,"type":"領事館","icon":"🇧🇬","country":"ブルガリア共和国","name":"在福岡ブルガリア共和国名誉領事館","address":"福岡県福岡市博多区博多駅東2-1-23"},"geometry":{"type":"Point","coordinates":[130.42255,33.58905]}},{"type":"Feature","properties":{"id":336,"type":"大使館","icon":"🇧🇾","country":"ベラルーシ共和国","name":"ベラルーシ共和国大使館","address":"東京都品川区東五反田5-6-32"},"geometry":{"type":"Point","coordinates":[139.72284,35.63054]}},{"type":"Feature","properties":{"id":337,"type":"領事館","icon":"🇧🇾","country":"ベラルーシ共和国","name":"在函館ベラルーシ共和国名誉領事館","address":"函館市千代台町12-25"},"geometry":{"type":"Point","coordinates":[140.74492,41.78178]}},{"type":"Feature","properties":{"id":338,"type":"領事館","icon":"🇧🇾","country":"ベラルーシ共和国","name":"在秋田ベラルーシ共和国名誉領事館","address":"秋田県秋田市大町3丁目2-44 大町ビル2階"},"geometry":{"type":"Point","coordinates":[140.11675,39.71699]}},{"type":"Feature","properties":{"id":339,"type":"大使館","icon":"🇧🇪","country":"ベルギー王国","name":"ベルギー王国大使館","address":"東京都千代田区二番町5-4"},"geometry":{"type":"Point","coordinates":[139.73586,35.68515]}},{"type":"Feature","properties":{"id":340,"type":"領事館","icon":"🇧🇪","country":"ベルギー王国","name":"在東京ベルギー王国総領事館","address":"東京都千代田区二番町5-4"},"geometry":{"type":"Point","coordinates":[139.73586,35.68515]}},{"type":"Feature","properties":{"id":341,"type":"領事館","icon":"🇧🇪","country":"ベルギー王国","name":"在札幌ベルギー王国名誉領事館","address":"札幌市中央区南9条西5丁目 パーク9・5ビル"},"geometry":{"type":"Point","coordinates":[141.35225,43.04841]}},{"type":"Feature","properties":{"id":342,"type":"領事館","icon":"🇧🇪","country":"ベルギー王国","name":"在名古屋ベルギー王国名誉領事館","address":"愛知県名古屋市西区牛島町6-1 名古屋ルーセントタワー"},"geometry":{"type":"Point","coordinates":[136.88129,35.17537]}},{"type":"Feature","properties":{"id":343,"type":"領事館","icon":"🇧🇪","country":"ベルギー王国","name":"在大阪ベルギー王国名誉領事館","address":"大阪市北区梅田1-13-1 大阪梅田ツインタワーズ・サウス"},"geometry":{"type":"Point","coordinates":[135.49863,34.70126]}},{"type":"Feature","properties":{"id":344,"type":"領事館","icon":"🇧🇪","country":"ベルギー王国","name":"在福岡ベルギー王国名誉領事館","address":"福岡市中央区大手門1-8-3"},"geometry":{"type":"Point","coordinates":[130.38235,33.5892]}},{"type":"Feature","properties":{"id":345,"type":"大使館","icon":"🇧🇪","country":"ポーランド共和国","name":"ポーランド共和国大使館","address":"東京都目黒区三田2-13-5"},"geometry":{"type":"Point","coordinates":[139.70869,35.63941]}},{"type":"Feature","properties":{"id":346,"type":"領事館","icon":"🇧🇪","country":"ポーランド共和国","name":"在神戸ポーランド共和国名誉総領事館","address":"兵庫県神戸市中央区北長狭通4-3-13"},"geometry":{"type":"Point","coordinates":[135.18713,34.69078]}},{"type":"Feature","properties":{"id":347,"type":"領事館","icon":"🇧🇪","country":"ポーランド共和国","name":"在広島ポーランド共和国名誉総領事館","address":"広島県広島市中区小町4-33"},"geometry":{"type":"Point","coordinates":[132.45558,34.38865]}},{"type":"Feature","properties":{"id":348,"type":"大使館","icon":"🇧🇦","country":"ボスニア・ヘルツェゴビナ","name":"ボスニア・ヘルツェゴビナ大使館","address":"東京都港区南麻布5丁目3番29号 ガーデニアビルディング2階・3階"},"geometry":{"type":"Point","coordinates":[139.72463,35.65344]}},{"type":"Feature","properties":{"id":349,"type":"領事館","icon":"🇧🇦","country":"ボスニア・ヘルツェゴビナ","name":"在つくばボスニア・ヘルツェゴビナ名誉領事館","address":"茨城県つくば市竹園2-13-30"},"geometry":{"type":"Point","coordinates":[140.11999,36.07665]}},{"type":"Feature","properties":{"id":350,"type":"領事館","icon":"🇧🇦","country":"ボスニア・ヘルツェゴビナ","name":"在和歌山ボスニア・ヘルツェゴビナ名誉領事館","address":"和歌山市中1-3"},"geometry":{"type":"Point","coordinates":[135.14533,34.25989]}},{"type":"Feature","properties":{"id":351,"type":"大使館","icon":"🇵🇹","country":"ポルトガル","name":"ポルトガル大使館","address":"東京都港区西麻布3-6-6"},"geometry":{"type":"Point","coordinates":[139.72623,35.65563]}},{"type":"Feature","properties":{"id":352,"type":"領事館","icon":"🇵🇹","country":"ポルトガル","name":"在名古屋ポルトガル名誉領事館","address":"愛知県名古屋市中村区名駅4-5-28 桜通豊田ビル15階"},"geometry":{"type":"Point","coordinates":[136.88644,35.17147]}},{"type":"Feature","properties":{"id":353,"type":"領事館","icon":"🇵🇹","country":"ポルトガル","name":"在京都ポルトガル名誉領事館","address":" 京都市北区堀川通鞍馬口上ル"},"geometry":{"type":"Point","coordinates":[135.75415,35.04104]}},{"type":"Feature","properties":{"id":354,"type":"領事館","icon":"🇵🇹","country":"ポルトガル","name":"在大阪ポルトガル名誉領事館","address":" 大阪市中央区南船場1丁目15-14 堺筋稲畑ビル"},"geometry":{"type":"Point","coordinates":[135.5065,34.67784]}},{"type":"Feature","properties":{"id":355,"type":"領事館","icon":"🇵🇹","country":"ポルトガル","name":"在神戸ポルトガル名誉領事館","address":"神戸市灘区永手町2丁目2-27"},"geometry":{"type":"Point","coordinates":[135.24077,34.71701]}},{"type":"Feature","properties":{"id":356,"type":"領事館","icon":"🇵🇹","country":"ポルトガル","name":"在徳島ポルトガル名誉領事館","address":"徳島県徳島市中常三島町1丁目29番地"},"geometry":{"type":"Point","coordinates":[134.56087,34.0797]}},{"type":"Feature","properties":{"id":357,"type":"領事館","icon":"🇵🇹","country":"ポルトガル","name":"在長崎ポルトガル名誉領事館","address":"長崎市銅座町1番11号"},"geometry":{"type":"Point","coordinates":[129.87485,32.7429]}},{"type":"Feature","properties":{"id":358,"type":"大使館","icon":"🇲🇹","country":"マルタ共和国","name":"マルタ共和国大使館","address":"東京都港区虎ノ門4-3-20 神谷町MTビル14階"},"geometry":{"type":"Point","coordinates":[139.74461,35.66359]}},{"type":"Feature","properties":{"id":359,"type":"領事館","icon":"🇲🇹","country":"マルタ共和国","name":"在大阪マルタ共和国名誉領事館","address":"大阪府堺市東区菩提町1-9-9"},"geometry":{"type":"Point","coordinates":[135.52863,34.54795]}},{"type":"Feature","properties":{"id":360,"type":"領事館","icon":"🇲🇹","country":"マルタ共和国","name":"在広島マルタ共和国名誉領事館","address":"広島県呉市音戸町波多見1-34-45"},"geometry":{"type":"Point","coordinates":[132.54883,34.18624]}},{"type":"Feature","properties":{"id":361,"type":"大使館","icon":"🇲🇩","country":"モルドバ共和国","name":"モルドバ共和国大使館","address":"東京都新宿区榎町72番地 神楽坂榎ビル3階"},"geometry":{"type":"Point","coordinates":[139.72879,35.70492]}},{"type":"Feature","properties":{"id":362,"type":"大使館","icon":"🇲🇨","country":"モナコ公国","name":"モナコ公国大使館大使館（兼轄、本国常駐）","address":"c/o Ministry of State,2, Place de la Visitation-MC98000 Monaco-Principality of Monaco"},"geometry":{"type":"Point","coordinates":[7.42543,43.73165]}},{"type":"Feature","properties":{"id":363,"type":"領事館","icon":"🇲🇨","country":"モナコ公国","name":"在東京モナコ公国名誉総領事館","address":"東京都千代田区丸の内2-3-1"},"geometry":{"type":"Point","coordinates":[139.76262,35.68107]}},{"type":"Feature","properties":{"id":364,"type":"大使館","icon":"🇲🇪","country":"モンテネグロ","name":"モンテネグロ大使館（兼轄、本国常駐）","address":"c/o Ministry of Foreign Affairs of Montenegro, St. Stanka Dragojevića No. 2, 81000 Podgorica, Montenegro"},"geometry":{"type":"Point","coordinates":[19.25882,42.44263]}},{"type":"Feature","properties":{"id":365,"type":"領事館","icon":"🇲🇪","country":"モンテネグロ","name":"在犬山（愛知）モンテネグロ名誉領事館","address":"愛知県犬山市大字前原字天道新田"},"geometry":{"type":"Point","coordinates":[136.97066,35.3657]}},{"type":"Feature","properties":{"id":366,"type":"大使館","icon":"🇱🇻","country":"ラトビア共和国","name":"ラトビア共和国大使館","address":"東京都渋谷区神山町37番11号 プリマヴェーラ神山A号室"},"geometry":{"type":"Point","coordinates":[139.69122,35.66514]}},{"type":"Feature","properties":{"id":367,"type":"領事館","icon":"🇱🇻","country":"ラトビア共和国","name":"在名古屋ラトビア共和国名誉領事館","address":"名古屋市中区錦1-2-7"},"geometry":{"type":"Point","coordinates":[136.89389,35.17249]}},{"type":"Feature","properties":{"id":368,"type":"領事館","icon":"🇱🇻","country":"ラトビア共和国","name":"在大阪ラトビア共和国名誉領事館","address":"大阪市北区梅田3-3-5"},"geometry":{"type":"Point","coordinates":[135.49289,34.69919]}},{"type":"Feature","properties":{"id":369,"type":"大使館","icon":"🇱🇹","country":"リトアニア共和国","name":"リトアニア共和国大使館","address":"東京都港区元麻布3-7-18"},"geometry":{"type":"Point","coordinates":[139.72975,35.65632]}},{"type":"Feature","properties":{"id":370,"type":"領事館","icon":"🇱🇹","country":"リトアニア共和国","name":"在札幌リトアニア共和国名誉領事館","address":"北海道札幌市中央区大通西11-4 大通藤井ビル"},"geometry":{"type":"Point","coordinates":[141.3405,43.05825]}},{"type":"Feature","properties":{"id":371,"type":"領事館","icon":"🇱🇹","country":"リトアニア共和国","name":"在千葉リトアニア共和国名誉領事館","address":"千葉県成田市吉岡709-11"},"geometry":{"type":"Point","coordinates":[140.40659,35.8255]}},{"type":"Feature","properties":{"id":372,"type":"領事館","icon":"🇱🇹","country":"リトアニア共和国","name":"在岐阜リトアニア共和国名誉領事館","address":"岐阜県岐阜市神田町2-2"},"geometry":{"type":"Point","coordinates":[136.76077,35.42053]}},{"type":"Feature","properties":{"id":373,"type":"領事館","icon":"🇱🇹","country":"リトアニア共和国","name":"在大阪リトアニア共和国名誉領事館","address":"大阪市中央区北浜3-5-29 日本生命淀屋橋ビル"},"geometry":{"type":"Point","coordinates":[135.50226,34.69222]}},{"type":"Feature","properties":{"id":374,"type":"領事館","icon":"🇱🇹","country":"リトアニア共和国","name":"在福山リトアニア共和国名誉総領事館","address":"広島県福山市東深津町4丁目20-1"},"geometry":{"type":"Point","coordinates":[133.39088,34.48918]}},{"type":"Feature","properties":{"id":375,"type":"大使館","icon":"🇷🇴","country":"ルーマニア","name":"ルーマニア大使館","address":"東京都港区西麻布3丁目16-19"},"geometry":{"type":"Point","coordinates":[139.72452,35.65798]}},{"type":"Feature","properties":{"id":376,"type":"領事館","icon":"🇷🇴","country":"ルーマニア","name":"在大阪ルーマニア名誉領事館","address":"大阪府大阪市天王寺区四天王寺2-1-9"},"geometry":{"type":"Point","coordinates":[135.52013,34.65558]}},{"type":"Feature","properties":{"id":377,"type":"大使館","icon":"🇱🇺","country":"ルクセンブルク大公国","name":"ルクセンブルク大公国大使館","address":"東京都千代田区四番町8-9 ルクセンブルクハウス1階"},"geometry":{"type":"Point","coordinates":[139.73736,35.68991]}},{"type":"Feature","properties":{"id":378,"type":"領事館","icon":"🇱🇺","country":"ルクセンブルク大公国","name":"在東京ルクセンブルク大公国名誉総領事館","address":"東京都中央区日本橋2-5-1 日本橋高島屋三井ビルディング"},"geometry":{"type":"Point","coordinates":[139.77365,35.6816]}},{"type":"Feature","properties":{"id":379,"type":"領事館","icon":"🇱🇺","country":"ルクセンブルク大公国","name":"在京都ルクセンブルク大公国名誉領事館","address":"京都市中京区西ノ京桑原町1"},"geometry":{"type":"Point","coordinates":[135.72917,35.00872]}},{"type":"Feature","properties":{"id":380,"type":"大使館","icon":"🇷🇺","country":"ロシア連邦","name":"ロシア連邦大使館","address":"東京都港区麻布台2丁目1-1"},"geometry":{"type":"Point","coordinates":[139.74124,35.65948]}},{"type":"Feature","properties":{"id":381,"type":"大使館","icon":"🇷🇺","country":"ロシア連邦","name":"ロシア連邦大使館（通商代表部）","address":"東京都港区高輪4丁目6番9号"},"geometry":{"type":"Point","coordinates":[139.73263,35.6282]}},{"type":"Feature","properties":{"id":382,"type":"領事館","icon":"🇷🇺","country":"ロシア連邦","name":"在札幌ロシア連邦総領事館","address":"札幌市中央区南十四条西12丁目2-5"},"geometry":{"type":"Point","coordinates":[141.34216,43.04022]}},{"type":"Feature","properties":{"id":383,"type":"領事館","icon":"🇷🇺","country":"ロシア連邦","name":"在札幌ロシア連邦総領事館","address":"函館市元町14-1"},"geometry":{"type":"Point","coordinates":[140.7115,41.76386]}},{"type":"Feature","properties":{"id":384,"type":"領事館","icon":"🇷🇺","country":"ロシア連邦","name":"在新潟ロシア連邦総領事館","address":"新潟市万代島5-1 万代島ビル12階"},"geometry":{"type":"Point","coordinates":[139.03654,37.91608]}},{"type":"Feature","properties":{"id":385,"type":"領事館","icon":"🇷🇺","country":"ロシア連邦","name":"在大阪ロシア連邦総領事館","address":"豊中市西緑丘1丁目2-2"},"geometry":{"type":"Point","coordinates":[135.47376,34.80901]}},{"type":"Feature","properties":{"id":386,"type":"その他","icon":"🇪🇺","country":"欧州連合","name":"欧州連合代表部","address":"東京都港区南麻布4丁目6番28号 ヨーロッパ・ハウス"},"geometry":{"type":"Point","coordinates":[139.72707,35.64987]}},{"type":"Feature","properties":{"id":387,"type":"大使館","icon":"🇦🇫","country":"アフガニスタン・イスラム共和国","name":"アフガニスタン・イスラム共和国大使館","address":"東京都港区麻布台2-2-1"},"geometry":{"type":"Point","coordinates":[139.74186,35.65788]}},{"type":"Feature","properties":{"id":388,"type":"大使館","icon":"🇦🇪","country":"アラブ首長国連邦","name":"アラブ首長国連邦大使館","address":"東京都目黒区下目黒1-8-1 アルコタワー7階"},"geometry":{"type":"Point","coordinates":[139.7134,35.63186]}},{"type":"Feature","properties":{"id":389,"type":"大使館","icon":"🇾🇪","country":"イエメン共和国","name":"イエメン共和国大使館","address":"東京都千代田区三番町6-3 三番町KB-6ビル4階"},"geometry":{"type":"Point","coordinates":[139.74547,35.69123]}},{"type":"Feature","properties":{"id":390,"type":"大使館","icon":"🇮🇱","country":"イスラエル","name":"イスラエル国大使館","address":"東京都千代田区二番町3"},"geometry":{"type":"Point","coordinates":[139.73765,35.68594]}},{"type":"Feature","properties":{"id":391,"type":"領事館","icon":"🇮🇱","country":"イスラエル","name":"在名古屋イスラエル国名誉領事館","address":"名古屋市中区丸の内2-14-4 エグゼ丸の内ビル701号室"},"geometry":{"type":"Point","coordinates":[136.89966,35.17503]}},{"type":"Feature","properties":{"id":392,"type":"領事館","icon":"🇮🇱","country":"イスラエル","name":"在神戸イスラエル国名誉領事館","address":"神戸市中央区中山手通5-2-3 扇都センタービル4階"},"geometry":{"type":"Point","coordinates":[135.1826,34.69159]}},{"type":"Feature","properties":{"id":393,"type":"大使館","icon":"🇮🇶","country":"イラク共和国","name":"イラク共和国大使館","address":"東京都渋谷区神山町14-6 ラビアンパレス松濤"},"geometry":{"type":"Point","coordinates":[139.69281,35.66302]}},{"type":"Feature","properties":{"id":394,"type":"大使館","icon":"🇮🇷","country":"イラン・イスラム共和国","name":"イラン・イスラム共和国大使館","address":"東京都港区南麻布3丁目13-9"},"geometry":{"type":"Point","coordinates":[139.73142,35.64811]}},{"type":"Feature","properties":{"id":395,"type":"大使館","icon":"🇮🇷","country":"イラン・イスラム共和国","name":"イラン・イスラム共和国大使館（文化部（イラン文化センター））","address":"東京都品川区東五反田5-7-9"},"geometry":{"type":"Point","coordinates":[139.72436,35.63104]}},{"type":"Feature","properties":{"id":396,"type":"大使館","icon":"🇴🇲","country":"オマーン国","name":"オマーン国大使館","address":"東京都渋谷区広尾4-2-17"},"geometry":{"type":"Point","coordinates":[139.72166,35.65426]}},{"type":"Feature","properties":{"id":397,"type":"領事館","icon":"🇴🇲","country":"オマーン国","name":"在大阪オマーン国名誉領事館","address":"大阪市北区梅田3-1-3"},"geometry":{"type":"Point","coordinates":[135.49634,34.70188]}},{"type":"Feature","properties":{"id":398,"type":"大使館","icon":"🇴🇲","country":"カタール国","name":"カタール国大使館","address":"東京都港区元麻布2丁目3-28"},"geometry":{"type":"Point","coordinates":[139.72745,35.65367]}},{"type":"Feature","properties":{"id":399,"type":"大使館","icon":"🇰🇼","country":"クウェート国","name":"クウェート国大使館","address":"東京都港区三田4丁目13-12"},"geometry":{"type":"Point","coordinates":[139.74157,35.64536]}},{"type":"Feature","properties":{"id":400,"type":"大使館","icon":"🇸🇦","country":"サウジアラビア王国","name":"サウジアラビア王国大使館","address":"東京都港区六本木1丁目8-4"},"geometry":{"type":"Point","coordinates":[139.73927,35.66333]}},{"type":"Feature","properties":{"id":401,"type":"大使館","icon":"🇸🇦","country":"サウジアラビア王国","name":"サウジアラビア王国大使館（文化部）","address":"東京都中野区中央2-37-3 中野アサヒビル"},"geometry":{"type":"Point","coordinates":[139.67878,35.7012]}},{"type":"Feature","properties":{"id":402,"type":"大使館","icon":"🇸🇾","country":"シリア・アラブ共和国","name":"シリア・アラブ共和国大使館","address":"東京都港区赤坂6丁目19-45 ホーマット・ジェイド"},"geometry":{"type":"Point","coordinates":[139.73374,35.66742]}},{"type":"Feature","properties":{"id":403,"type":"大使館","icon":"🇹🇷","country":"トルコ共和国","name":"トルコ共和国大使館","address":"東京都渋谷区神宮前2丁目33-6"},"geometry":{"type":"Point","coordinates":[139.70847,35.67318]}},{"type":"Feature","properties":{"id":404,"type":"大使館","icon":"🇹🇷","country":"トルコ共和国","name":"トルコ共和国大使館（商務部）","address":"東京都港区北青山1-2-7 コウヅキキャピタルイースト5階"},"geometry":{"type":"Point","coordinates":[139.72347,35.67282]}},{"type":"Feature","properties":{"id":405,"type":"領事館","icon":"🇹🇷","country":"トルコ共和国","name":"在名古屋トルコ共和国総領事館","address":"愛知県名古屋市中区栄3丁目21-23 KSイセヤビル4階"},"geometry":{"type":"Point","coordinates":[136.90285,35.16445]}},{"type":"Feature","properties":{"id":406,"type":"領事館","icon":"🇹🇷","country":"トルコ共和国","name":"在大阪トルコ共和国名誉総領事館","address":"大阪府吹田市南金田2-12-1"},"geometry":{"type":"Point","coordinates":[135.50568,34.75535]}},{"type":"Feature","properties":{"id":407,"type":"領事館","icon":"🇹🇷","country":"トルコ共和国","name":"在和歌山トルコ共和国名誉総領事館","address":"和歌山市坂田85番地"},"geometry":{"type":"Point","coordinates":[135.20177,34.20882]}},{"type":"Feature","properties":{"id":408,"type":"領事館","icon":"🇹🇷","country":"トルコ共和国","name":"在福岡トルコ共和国名誉総領事館","address":"福岡市博多区博多駅前3-25-21"},"geometry":{"type":"Point","coordinates":[130.41717,33.5896]}},{"type":"Feature","properties":{"id":409,"type":"大使館","icon":"🇧🇭","country":"バーレーン王国","name":"バーレーン王国大使館","address":"東京都港区赤坂1丁目11-36 レジデンス・バイカウンテス710号"},"geometry":{"type":"Point","coordinates":[139.74173,35.66872]}},{"type":"Feature","properties":{"id":410,"type":"大使館","icon":"🇯🇴","country":"ヨルダン","name":"ヨルダン・ハシェミット王国大使館","address":"東京都渋谷区神山町39-8"},"geometry":{"type":"Point","coordinates":[139.6917,35.66442]}},{"type":"Feature","properties":{"id":411,"type":"大使館","icon":"🇯🇴","country":"ヨルダン","name":"ヨルダン・ハシェミット王国大使館（武官部）","address":"東京都中央区湊2-11-1 シティタワー銀座東321・322号室"},"geometry":{"type":"Point","coordinates":[139.78009,35.67152]}},{"type":"Feature","properties":{"id":412,"type":"大使館","icon":"🇱🇧","country":"レバノン共和国","name":"レバノン共和国大使館","address":"東京都目黒区東山2-6-9 パステルシティ東山101号"},"geometry":{"type":"Point","coordinates":[139.69018,35.64927]}},{"type":"Feature","properties":{"id":413,"type":"大使館","icon":"🇩🇿","country":"アルジェリア民主人民共和国","name":"アルジェリア民主人民共和国大使館","address":"東京都目黒区三田2丁目10-67"},"geometry":{"type":"Point","coordinates":[139.71018,35.63907]}},{"type":"Feature","properties":{"id":414,"type":"大使館","icon":"🇦🇴","country":"アンゴラ共和国","name":"アンゴラ共和国大使館","address":"東京都世田谷区代沢2-10-24"},"geometry":{"type":"Point","coordinates":[139.67263,35.65682]}},{"type":"Feature","properties":{"id":415,"type":"領事館","icon":"🇦🇴","country":"アンゴラ共和国","name":"在名古屋アンゴラ共和国名誉領事館","address":"名古屋市中村区名駅四丁目9番8号 センチュリー豊田ビル"},"geometry":{"type":"Point","coordinates":[136.88677,35.1689]}},{"type":"Feature","properties":{"id":416,"type":"大使館","icon":"🇺🇬","country":"ウガンダ共和国","name":"ウガンダ共和国大使館","address":"東京都港区赤坂9-6-44 乃木坂フォレスト3階"},"geometry":{"type":"Point","coordinates":[139.72822,35.66794]}},{"type":"Feature","properties":{"id":417,"type":"領事館","icon":"🇺🇬","country":"ウガンダ共和国","name":"在大阪ウガンダ共和国名誉領事館","address":"大阪府大阪市東住吉区湯里2-2-8"},"geometry":{"type":"Point","coordinates":[135.53651,34.61608]}},{"type":"Feature","properties":{"id":418,"type":"大使館","icon":"🇪🇬","country":"エジプト・アラブ共和国","name":"エジプト・アラブ共和国大使館","address":"東京都目黒区青葉台1丁目5-4"},"geometry":{"type":"Point","coordinates":[139.69846,35.64899]}},{"type":"Feature","properties":{"id":419,"type":"大使館","icon":"🇪🇬","country":"エジプト・アラブ共和国","name":"エジプト・アラブ共和国大使館（文化・教育・科学部）","address":"東京都目黒区東が丘1-19-17 東ヶ丘ガーデンハウス＃A"},"geometry":{"type":"Point","coordinates":[139.66837,35.62629]}},{"type":"Feature","properties":{"id":420,"type":"大使館","icon":"🇸🇿","country":"エスワティニ王国","name":"エスワティニ王国大使館（兼轄、マレーシア常駐）","address":"Menara Citibank 22nd Floor, Suite 03 &. 03A, 165, Jalan Ampang, 50450 Kuala Lumpur, Malaysia"},"geometry":{"type":"Point","coordinates":[101.71746,3.15989]}},{"type":"Feature","properties":{"id":421,"type":"大使館","icon":"🇪🇹","country":"エチオピア連邦民主共和国","name":"エチオピア連邦民主共和国大使館","address":"東京都港区高輪3丁目4-1 高輪偕成ビル2階"},"geometry":{"type":"Point","coordinates":[139.7315,35.63498]}},{"type":"Feature","properties":{"id":422,"type":"領事館","icon":"🇪🇹","country":"エチオピア連邦民主共和国","name":"在名古屋エチオピア連邦民主共和国名誉領事館","address":"愛知県名古屋市中区栄3丁目35番1号"},"geometry":{"type":"Point","coordinates":[136.90247,35.1638]}},{"type":"Feature","properties":{"id":423,"type":"領事館","icon":"🇪🇹","country":"エチオピア連邦民主共和国","name":"在大阪エチオピア連邦民主共和国名誉領事館","address":"大阪市西区新町1-4-26 四ツ橋グランドビル9階"},"geometry":{"type":"Point","coordinates":[135.49718,34.67636]}},{"type":"Feature","properties":{"id":424,"type":"大使館","icon":"🇪🇷","country":"エリトリア国","name":"エリトリア国大使館","address":"東京都港区白金台4丁目7-4 白金台STビル第401号室"},"geometry":{"type":"Point","coordinates":[139.72616,35.63809]}},{"type":"Feature","properties":{"id":425,"type":"大使館","icon":"🇬🇭","country":"ガーナ共和国","name":"ガーナ共和国大使館","address":"東京都港区西麻布1丁目5-21"},"geometry":{"type":"Point","coordinates":[139.72546,35.66171]}},{"type":"Feature","properties":{"id":426,"type":"領事館","icon":"🇬🇭","country":"ガーナ共和国","name":"在札幌ガーナ共和国名誉領事館","address":"札幌市清田区美しが丘1条9丁目1-1 札幌観光バスビル"},"geometry":{"type":"Point","coordinates":[141.46751,42.97904]}},{"type":"Feature","properties":{"id":427,"type":"領事館","icon":"🇬🇭","country":"ガーナ共和国","name":"在福岡ガーナ共和国名誉総領事館","address":"福岡市博多区博多駅東1-1-33 はかた近代ビル2階"},"geometry":{"type":"Point","coordinates":[130.42171,33.59214]}},{"type":"Feature","properties":{"id":428,"type":"大使館","icon":"🇨🇻","country":"カーボベルデ共和国","name":"カーボベルデ共和国大使館（兼轄、中国常駐）","address":"No.5-1-71, Ta Yuan Diplomatic Compound, No1, Xindong Road, Chaoyang District, Beijing, China"},"geometry":{"type":"Point","coordinates":[116.45013,39.94515]}},{"type":"Feature","properties":{"id":429,"type":"大使館","icon":"🇬🇦","country":"ガボン共和国","name":"ガボン共和国大使館","address":"東京都目黒区東が丘1-34-11"},"geometry":{"type":"Point","coordinates":[139.66632,35.63058]}},{"type":"Feature","properties":{"id":430,"type":"大使館","icon":"🇨🇲","country":"カメルーン共和国","name":"カメルーン共和国大使館","address":"東京都世田谷区野沢3丁目27-16 南ツインハウス A＆B"},"geometry":{"type":"Point","coordinates":[139.67433,35.63238]}},{"type":"Feature","properties":{"id":431,"type":"領事館","icon":"🇬🇲","country":"ガンビア共和国","name":"在名古屋ガンビア共和国名誉総領事館","address":"愛知県名古屋市西区中小田井5-16"},"geometry":{"type":"Point","coordinates":[136.8761,35.21506]}},{"type":"Feature","properties":{"id":432,"type":"大使館","icon":"🇬🇳","country":"ギニア共和国","name":"ギニア共和国大使館","address":"東京都渋谷区鉢山町12-9"},"geometry":{"type":"Point","coordinates":[139.69675,35.65174]}},{"type":"Feature","properties":{"id":433,"type":"大使館","icon":"🇬🇼","country":"ギニアビサウ共和国","name":"ギニアビサウ共和国大使館（兼轄、中国常駐）","address":"4-2-112, No.1, Xing Dong Road, Chao Yang District, Beijing, China"},"geometry":{"type":"Point","coordinates":[116.94196,40.28139]}},{"type":"Feature","properties":{"id":434,"type":"大使館","icon":"🇰🇪","country":"ケニア共和国","name":"ケニア共和国大使館","address":"東京都目黒区八雲3丁目24-3"},"geometry":{"type":"Point","coordinates":[139.66609,35.61435]}},{"type":"Feature","properties":{"id":435,"type":"領事館","icon":"🇰🇪","country":"ケニア共和国","name":"在名古屋ケニア共和国名誉領事館","address":"愛知県名古屋市中村区名駅4-9-8 センチュリー豊田ビル16階"},"geometry":{"type":"Point","coordinates":[136.88677,35.1689]}},{"type":"Feature","properties":{"id":436,"type":"大使館","icon":"🇨🇮","country":"コートジボワール","name":"コートジボワール共和国大使館","address":"東京都渋谷区上原2丁目19-12"},"geometry":{"type":"Point","coordinates":[139.68262,35.66458]}},{"type":"Feature","properties":{"id":437,"type":"大使館","icon":"🇰🇲","country":"コモロ連合","name":"コモロ連合大使館（兼轄、中国常駐）","address":"Apt2-2-122, Jianguomenwai DRC, No1 Silk str., Chaoyang District, Beijing, China"},"geometry":{"type":"Point","coordinates":[116.4576,39.93466]}},{"type":"Feature","properties":{"id":438,"type":"領事館","icon":"🇰🇲","country":"コモロ連合","name":"在東京コモロ連合名誉領事館","address":"東京都港区南青山5丁目9-15 青山OHMOTOビル3F"},"geometry":{"type":"Point","coordinates":[139.71134,35.66304]}},{"type":"Feature","properties":{"id":439,"type":"大使館","icon":"🇨🇬","country":"コンゴ共和国","name":"コンゴ共和国大使館","address":"東京都大田区田園調布3丁目16-4"},"geometry":{"type":"Point","coordinates":[139.66361,35.59546]}},{"type":"Feature","properties":{"id":440,"type":"領事館","icon":"🇨🇬","country":"コンゴ共和国","name":"在京都コンゴ共和国名誉領事館","address":"京都市下京区松原通烏丸西入ル玉津島町294"},"geometry":{"type":"Point","coordinates":[135.76477,34.99892]}},{"type":"Feature","properties":{"id":441,"type":"大使館","icon":"🇨🇩","country":"コンゴ民主共和国","name":"コンゴ民主共和国大使館","address":"東京都港区南青山2-9-21"},"geometry":{"type":"Point","coordinates":[139.7215,35.66995]}},{"type":"Feature","properties":{"id":442,"type":"領事館","icon":"🇨🇩","country":"コンゴ民主共和国","name":"在大阪コンゴ民主共和国名誉領事館","address":"大阪府岸和田市積川町23-5"},"geometry":{"type":"Point","coordinates":[135.44037,34.42735]}},{"type":"Feature","properties":{"id":443,"type":"大使館","icon":"🇿🇲","country":"ザンビア共和国","name":"ザンビア共和国大使館","address":"東京都品川区荏原1丁目10-2"},"geometry":{"type":"Point","coordinates":[139.71527,35.62061]}},{"type":"Feature","properties":{"id":444,"type":"大使館","icon":"🇸🇱","country":"シエラレオネ共和国","name":"シエラレオネ共和国大使館（兼轄、中国常駐）","address":"7, Dong Zhi Men Wai Da Jie, Chao Yang District, Beijing, People's Republic of China. 100600"},"geometry":{"type":"Point","coordinates":[116.45682,39.94168]}},{"type":"Feature","properties":{"id":445,"type":"大使館","icon":"🇩🇯","country":"ジブチ共和国","name":"ジブチ共和国大使館","address":"東京都品川区北品川5-13-1"},"geometry":{"type":"Point","coordinates":[139.73323,35.6228]}},{"type":"Feature","properties":{"id":446,"type":"大使館","icon":"🇿🇼","country":"ジンバブエ共和国","name":"ジンバブエ共和国大使館","address":"東京都港区三田5-4-3 三田プラザビル6階"},"geometry":{"type":"Point","coordinates":[139.73894,35.64767]}},{"type":"Feature","properties":{"id":447,"type":"大使館","icon":"🇸🇩","country":"スーダン共和国","name":"スーダン共和国大使館","address":"東京都目黒区八雲4-7-1"},"geometry":{"type":"Point","coordinates":[139.6719,35.62377]}},{"type":"Feature","properties":{"id":448,"type":"大使館","icon":"🇸🇨","country":"セーシェル共和国","name":"セーシェル共和国大使館（兼轄、中国常駐）","address":"No. 6-2-121, Jian GuoMenwai Diplomatic Compound, No.1, Xiu Shui Road, Chaoyang District, Beijing, China"},"geometry":{"type":"Point","coordinates":[116.45165,39.91992]}},{"type":"Feature","properties":{"id":449,"type":"大使館","icon":"🇬🇶","country":"赤道ギニア共和国","name":"赤道ギニア共和国大使館（兼轄、中国常駐）","address":"No2, San Li Tun, Dong Si Jie, Chaoyang District, Beijing, China"},"geometry":{"type":"Point","coordinates":[116.4584,39.9394]}},{"type":"Feature","properties":{"id":450,"type":"大使館","icon":"🇸🇳","country":"セネガル共和国","name":"セネガル共和国大使館","address":"東京都目黒区青葉台1丁目3-4"},"geometry":{"type":"Point","coordinates":[139.6968,35.64945]}},{"type":"Feature","properties":{"id":451,"type":"領事館","icon":"🇸🇳","country":"セネガル共和国","name":"在大阪セネガル共和国名誉領事館","address":"大阪府摂津市鳥飼八防2-4-16"},"geometry":{"type":"Point","coordinates":[135.57387,34.77035]}},{"type":"Feature","properties":{"id":452,"type":"領事館","icon":"🇸🇳","country":"セネガル共和国","name":"在北九州セネガル共和国名誉領事館","address":"福岡県北九州市小倉北区紺屋町12-21 勝山ビル2階"},"geometry":{"type":"Point","coordinates":[130.88432,33.88039]}},{"type":"Feature","properties":{"id":453,"type":"大使館","icon":"🇹🇿","country":"タンザニア連合共和国","name":"タンザニア連合共和国大使館","address":"東京都世田谷区上用賀4丁目21-9"},"geometry":{"type":"Point","coordinates":[139.62904,35.63685]}},{"type":"Feature","properties":{"id":454,"type":"領事館","icon":"🇹🇿","country":"タンザニア連合共和国","name":"在大阪タンザニア連合共和国名誉領事館","address":"大阪市此花区伝法6-1-49"},"geometry":{"type":"Point","coordinates":[135.44859,34.68492]}},{"type":"Feature","properties":{"id":455,"type":"大使館","icon":"🇹🇩","country":"チャド共和国","name":"チャド共和国大使館（兼轄、中国常駐）","address":"Tayuan Diplomatic Residence Compound 4-2-41 No.1, Xin Dong Lu, Beijing, China"},"geometry":{"type":"Point","coordinates":[116.46447,39.95238]}},{"type":"Feature","properties":{"id":456,"type":"領事館","icon":"🇨🇫","country":"中央アフリカ共和国","name":"在東京中央アフリカ共和国名誉総領事館","address":"東京都世田谷区中町4-38-9"},"geometry":{"type":"Point","coordinates":[139.63927,35.6156]}},{"type":"Feature","properties":{"id":457,"type":"大使館","icon":"🇹🇳","country":"チュニジア共和国","name":"チュニジア共和国大使館","address":"東京都千代田区九段南3-6-6"},"geometry":{"type":"Point","coordinates":[139.74339,35.69268]}},{"type":"Feature","properties":{"id":458,"type":"領事館","icon":"🇹🇳","country":"チュニジア共和国","name":"在大阪チュニジア共和国名誉領事館","address":"大阪市東住吉区湯里2-2-8"},"geometry":{"type":"Point","coordinates":[135.53651,34.61608]}},{"type":"Feature","properties":{"id":459,"type":"大使館","icon":"🇹🇬","country":"トーゴ共和国","name":"トーゴ共和国大使館","address":"東京都目黒区八雲2-2-4"},"geometry":{"type":"Point","coordinates":[139.67069,35.6201]}},{"type":"Feature","properties":{"id":460,"type":"大使館","icon":"🇳🇬","country":"ナイジェリア連邦共和国","name":"ナイジェリア連邦共和国大使館","address":"東京都港区虎ノ門3丁目6-1"},"geometry":{"type":"Point","coordinates":[139.74541,35.66661]}},{"type":"Feature","properties":{"id":461,"type":"大使館","icon":"🇳🇦","country":"ナミビア共和国","name":"ナミビア共和国大使館","address":"東京都港区麻布台3-5-7 AMEREXビル4階"},"geometry":{"type":"Point","coordinates":[139.74036,35.65998]}},{"type":"Feature","properties":{"id":462,"type":"大使館","icon":"🇳🇪","country":"ニジェール共和国","name":"ニジェール共和国大使館（兼轄、中国常駐）","address":"1-21 Bangonglou Sanlitun Diplomatic Compound, Beijing, China"},"geometry":{"type":"Point","coordinates":[116.4651,39.95281]}},{"type":"Feature","properties":{"id":463,"type":"領事館","icon":"🇳🇪","country":"ニジェール共和国","name":"在東京ニジェール共和国名誉領事館","address":"東京都港区芝大門2-11-18 芝関野ビル3階"},"geometry":{"type":"Point","coordinates":[139.75351,35.65438]}},{"type":"Feature","properties":{"id":464,"type":"大使館","icon":"🇧🇫","country":"ブルキナファソ","name":"ブルキナファソ大使館","address":"東京都渋谷区大山町45-24 太田ハウス"},"geometry":{"type":"Point","coordinates":[139.67758,35.66913]}},{"type":"Feature","properties":{"id":465,"type":"大使館","icon":"🇧🇮","country":"ブルンジ共和国","name":"ブルンジ共和国大使館（兼轄、中国常駐）","address":"25, Guang Hua Lu, Jian Guo Men, Chaoyang District, Beijing, China"},"geometry":{"type":"Point","coordinates":[116.43778,39.91369]}},{"type":"Feature","properties":{"id":466,"type":"大使館","icon":"🇧🇯","country":"ベナン共和国","name":"ベナン共和国大使館","address":"東京都文京区春日1-11-14 S.G.ビル8階"},"geometry":{"type":"Point","coordinates":[139.74692,35.71002]}},{"type":"Feature","properties":{"id":467,"type":"大使館","icon":"🇧🇼","country":"ボツワナ共和国","name":"ボツワナ共和国大使館","address":"東京都港区芝4丁目5-10 ACN田町ビル6階"},"geometry":{"type":"Point","coordinates":[139.75092,35.64868]}},{"type":"Feature","properties":{"id":468,"type":"大使館","icon":"🇲🇬","country":"マダガスカル共和国","name":"マダガスカル共和国大使館","address":"東京都港区元麻布2丁目3-23"},"geometry":{"type":"Point","coordinates":[139.72781,35.65362]}},{"type":"Feature","properties":{"id":469,"type":"大使館","icon":"🇲🇼","country":"マラウイ共和国","name":"マラウイ共和国大使館","address":"東京都港区高輪3丁目4-1 高輪偕成ビル5階・7階"},"geometry":{"type":"Point","coordinates":[139.7315,35.63498]}},{"type":"Feature","properties":{"id":470,"type":"大使館","icon":"🇲🇱","country":"マリ共和国","name":"マリ共和国大使館","address":"東京都品川区上大崎3丁目12-9"},"geometry":{"type":"Point","coordinates":[139.71865,35.63069]}},{"type":"Feature","properties":{"id":471,"type":"大使館","icon":"🇿🇦","country":"南アフリカ共和国","name":"南アフリカ共和国大使館","address":"東京都千代田区麹町1-4 半蔵門ファーストビル4階"},"geometry":{"type":"Point","coordinates":[139.74379,35.68434]}},{"type":"Feature","properties":{"id":472,"type":"大使館","icon":"🇸🇸","country":"南スーダン共和国","name":"南スーダン共和国大使館","address":"東京都港区赤坂2丁目21-15 赤坂OSビル4階"},"geometry":{"type":"Point","coordinates":[139.73911,35.66833]}},{"type":"Feature","properties":{"id":473,"type":"大使館","icon":"🇲🇿","country":"モザンビーク共和国","name":"モザンビーク共和国大使館","address":"東京都世田谷区桜新町1-33-14"},"geometry":{"type":"Point","coordinates":[139.64349,35.62773]}},{"type":"Feature","properties":{"id":474,"type":"大使館","icon":"🇲🇺","country":"モーリシャス共和国","name":"モーリシャス共和国大使館（兼轄、オーストラリア常駐）","address":"2 Beale Crescent, Deakin, ACT, 2600, Australia"},"geometry":{"type":"Point","coordinates":[149.09263,-35.32385]}},{"type":"Feature","properties":{"id":475,"type":"領事館","icon":"🇲🇺","country":"モーリシャス共和国","name":"在東京モーリシャス共和国名誉領事館","address":"東京都港区虎ノ門2-1-1"},"geometry":{"type":"Point","coordinates":[139.74682,35.66988]}},{"type":"Feature","properties":{"id":476,"type":"大使館","icon":"🇲🇷","country":"モーリタニア・イスラム共和国","name":"モーリタニア・イスラム共和国大使館","address":"東京都目黒区五本木1-16-17"},"geometry":{"type":"Point","coordinates":[139.6879,35.63862]}},{"type":"Feature","properties":{"id":477,"type":"大使館","icon":"🇲🇦","country":"モロッコ王国","name":"モロッコ王国大使館","address":"東京都港区南青山5-4-30"},"geometry":{"type":"Point","coordinates":[139.71432,35.66221]}},{"type":"Feature","properties":{"id":478,"type":"領事館","icon":"🇲🇦","country":"モロッコ王国","name":"在群馬モロッコ王国名誉領事館","address":"群馬県前橋市朝倉町555-4"},"geometry":{"type":"Point","coordinates":[139.091,36.35428]}},{"type":"Feature","properties":{"id":479,"type":"領事館","icon":"🇲🇦","country":"モロッコ王国","name":"在岐阜モロッコ王国名誉領事館","address":"岐阜県美濃加茂市太田町1752-1"},"geometry":{"type":"Point","coordinates":[137.01869,35.4441]}},{"type":"Feature","properties":{"id":480,"type":"領事館","icon":"🇲🇦","country":"モロッコ王国","name":"在大阪モロッコ王国名誉領事館","address":"大阪市中央区北浜4-5-33"},"geometry":{"type":"Point","coordinates":[135.49928,34.69245]}},{"type":"Feature","properties":{"id":481,"type":"領事館","icon":"🇲🇦","country":"モロッコ王国","name":"在長崎モロッコ王国名誉領事館","address":"長崎県佐世保市干尽町3-47"},"geometry":{"type":"Point","coordinates":[129.72617,33.15327]}},{"type":"Feature","properties":{"id":482,"type":"大使館","icon":"🇱🇾","country":"リビア国","name":"リビア国大使館","address":"東京都渋谷区代官山町10-14"},"geometry":{"type":"Point","coordinates":[139.70467,35.65097]}},{"type":"Feature","properties":{"id":483,"type":"大使館","icon":"🇱🇷","country":"リベリア共和国","name":"リベリア共和国大使館","address":"東京都新宿区市谷砂土原町1-2-61 オフィス横丁市谷"},"geometry":{"type":"Point","coordinates":[139.73553,35.69414]}},{"type":"Feature","properties":{"id":484,"type":"大使館","icon":"🇷🇼","country":"ルワンダ共和国","name":"ルワンダ共和国大使館","address":"東京都世田谷区深沢1丁目17-17 アネックス深沢A棟"},"geometry":{"type":"Point","coordinates":[139.662,35.61702]}},{"type":"Feature","properties":{"id":485,"type":"大使館","icon":"🇱🇸","country":"レソト王国","name":"レソト王国大使館","address":"東京都港区赤坂7-5-47　U&M赤坂ビル1階・3階"},"geometry":{"type":"Point","coordinates":[139.72999,35.67213]}},{"type":"Feature","properties":{"id":486,"type":"領事館","icon":"🇱🇸","country":"レソト王国","name":"在群馬レソト王国名誉領事館","address":"群馬県桐生市本町5-40"},"geometry":{"type":"Point","coordinates":[139.33884,36.40987]}}]}
